     2.11           Observation         G (GPS)             RINEX VERSION / TYPE
hgextrobs           John Knutson        20220503 183316 UTC PGM / RUN BY / DATE
ARL1                                                        MARKER NAME
Monitor Station     NGA                                     OBSERVER / AGENCY
1                   ITT MSN SAASM       3.2.11              REC # / TYPE / VERS
1                   ITT 3750323-1                           ANT # / TYPE
  -740289.9180 -5457071.7340  3207245.5420                  APPROX POSITION XYZ
        0.0000        0.0000        0.0000                  ANTENNA: DELTA H/E/N
     1     1                                                WAVELENGTH FACT L1/2
    10    L1    L2    C1    C2    P1    P2    D1    D2    S1# / TYPES OF OBSERV
          S2                                                # / TYPES OF OBSERV
    30.000                                                  INTERVAL
  2015     7    19     0     0    0.0000000     GPS         TIME OF FIRST OBS
85408                                                       MARKER NUMBER
                                                            END OF HEADER
 15  7 19  0  0  0.0000000  0  7G02G05G10G12G20G25G29
 -20304412.007   -16349457.595    21276226.827           0.000    21276226.702  
  21276226.580       -1011.373        -788.086          45.770          51.240  
 -27322319.697   -21629094.896    20272180.010    20272200.350    20272180.144  
  20272181.743         684.793         533.603          46.160          56.190  
 -14766236.143   -13945235.768    22314760.896           0.000    22314760.502  
  22314763.866       -2957.608       -2304.629          40.440          45.130  
 -23689691.045   -18459485.574    20800939.662    20800963.420    20800939.885  
  20800941.412       -1361.824       -1061.162          46.860          53.110  
 -13247487.018   -11114996.813    22695330.172           0.000    22695329.946  
  22695334.144        3302.212        2573.149          41.260          44.080  
 -16356224.402   -15143822.548    21749207.755    21749246.580    21749208.204  
  21749213.246        1074.381         837.182          44.670          49.420  
 -10570141.286    -8236461.547    23333946.851    23333960.330    23333947.229  
  23333949.368        2805.006        2185.718          41.730          45.450  
 15  7 19  0  0 30.0000000  0  7G02G05G10G12G20G25G29
 -20274022.873   -16325777.764    21282009.614           0.000    21282009.278  
  21282009.427       -1014.563        -790.570          45.270          51.090  
 -27342574.011   -21644877.459    20268324.844    20268353.080    20268325.669  
  20268327.453         665.496         518.567          45.820          56.190  
 -14677324.698   -13875954.149    22331679.990           0.000    22331679.570  
  22331682.997       -2969.790       -2314.117          40.540          44.970  
 -23648560.554   -18427435.861    20808766.270    20808787.600    20808766.694  
  20808767.937       -1380.200       -1075.479          46.700          52.830  
 -13346432.205   -11192096.826    22676501.177           0.000    22676501.502  
  22676505.354        3294.120        2566.847          41.240          44.120  
 -16388170.587   -15168715.669    21743128.724    21743158.850    21743128.972  
  21743134.148        1055.354         822.353          44.240          49.440  
 -10654293.509    -8302034.667    23317930.346    23317979.590    23317931.339  
  23317935.736        2805.122        2185.801          40.030          45.370  
 15  7 19  0  1  0.0000000  0  7G02G05G10G12G20G25G29
 -20243538.661   -16302023.845    21287810.231           0.000    21287810.013  
  21287810.186       -1017.706        -793.019          45.190          51.040  
 -27362249.930   -21660209.326    20264581.274    20264614.740    20264581.411  
  20264583.249         646.237         503.558          45.960          56.270  
 -14588049.564   -13806389.140    22348668.418           0.000    22348668.026  
  22348671.805       -2981.860       -2323.531          40.580          45.440  
 -23606880.327   -18394957.782    20816698.211    20816719.850    20816698.265  
  20816699.404       -1398.489       -1089.733          47.000          52.780  
 -13445133.551   -11269006.853    22657719.111           0.000    22657718.887  
  22657722.965        3285.957        2560.481          41.330          44.540  
 -16419545.842   -15193163.910    21737157.928    21737186.480    21737158.269  
  21737163.702        1036.324         807.528          44.180          49.490  
 -10738448.933    -8367610.270    23301919.214    23301956.640    23301919.849  
  23301921.171        2805.216        2185.885          42.770          45.660  
 15  7 19  0  1 30.0000000  0  7G02G05G10G12G20G25G29
 -20212960.013   -16278196.337    21293629.821           0.000    21293629.095  
  21293629.185       -1020.851        -795.472          44.970          50.900  
 -27381346.865   -21675090.034    20260947.035    20260974.580    20260947.404  
  20260949.407         626.902         488.495          45.830          56.380  
 -14498413.433   -13736542.843    22365726.535           0.000    22365725.529  
  22365729.023       -2993.856       -2332.870          40.790          45.370  
 -23564651.682   -18362052.362    20824733.724    20824762.140    20824734.045  
  20824735.324       -1416.738       -1103.949          46.750          52.750  
 -13543588.782   -11345725.087    22638984.126           0.000    22638983.363  
  22638987.577        3277.718        2554.064          41.250          44.840  
 -16450348.994   -15217166.363    21731295.960    21731331.620    21731296.295  
  21731301.784        1017.235         792.653          43.910          49.360  
 -10822606.375    -8433187.435    23285902.285    23285920.940    23285902.751  
  23285906.661        2805.272        2185.922          40.630          45.760  
 15  7 19  0  2  0.0000000  0  7G02G05G10G12G20G25G29
 -20182287.516   -16254295.706    21299465.873           0.000    21299465.709  
  21299465.741       -1023.975        -797.902          44.910          50.760  
 -27399864.656   -21689519.458    20257423.664    20257447.620    20257424.090  
  20257425.739         607.611         473.462          45.930          56.420  
 -14408419.404   -13666417.652    22382851.388           0.000    22382850.642  
  22382854.850       -3005.720       -2342.116          40.310          45.800  
 -23521876.107   -18328720.764    20832873.578    20832910.560    20832873.772  
  20832875.356       -1434.942       -1118.133          46.600          52.680  
 -13641795.780   -11422249.898    22620296.323           0.000    22620295.265  
  22620299.516        3269.401        2547.585          41.530          44.830  
 -16480578.990   -15240722.203    21725543.697    21725574.600    21725543.481  
  21725549.271         998.104         777.741          43.850          49.370  
 -10906764.331    -8498765.013    23269889.206    23269919.030    23269888.958  
  23269891.644        2805.253        2185.911          40.700          45.760  
 15  7 19  0  2 30.0000000  0  7G02G05G10G12G20G25G29
 -20151521.627   -16230322.293    21305321.125           0.000    21305320.762  
  21305320.271       -1027.081        -800.323          45.100          50.720  
 -27417803.194   -21703497.517    20254009.427    20254042.450    20254010.206  
  20254011.861         588.287         458.406          45.840          56.390  
 -14318070.402   -13596015.871    22400042.788           0.000    22400043.069  
  22400048.149       -3017.525       -2351.320          39.770          46.190  
 -23478555.419   -18294964.400    20841117.968    20841139.510    20841117.742  
  20841118.896       -1453.107       -1132.290          46.670          52.560  
 -13739752.353   -11498579.587    22601655.198           0.000    22601654.475  
  22601658.910        3261.021        2541.055          41.940          44.690  
 -16510234.910   -15263830.714    21719899.878    21719933.830    21719900.337  
  21719906.043         978.936         762.811          43.900          49.430  
 -10990921.685    -8564342.073    23253873.451    23253904.800    23253874.771  
  23253877.475        2805.208        2185.875          41.070          45.970  
 15  7 19  0  3  0.0000000  0  7G02G05G10G12G20G25G29
 -20120662.910   -16206276.552    21311192.444           0.000    21311192.405  
  21311192.354       -1030.169        -802.729          44.880          50.690  
 -27435162.327   -21717024.095    20250706.426    20250732.080    20250706.838  
  20250708.427         568.982         443.364          45.940          56.260  
 -14227369.211   -13525339.687    22417303.686           0.000    22417303.499  
  22417308.065       -3029.204       -2360.415          39.960          46.190  
 -23434691.038   -18260784.384    20849464.760    20849493.130    20849464.871  
  20849465.929       -1471.179       -1146.373          46.740          52.500  
 -13837456.727   -11574712.757    22583062.482           0.000    22583061.620  
  22583066.106        3252.587        2534.489          41.800          44.360  
 -16539315.717   -15286491.076    21714366.676    21714397.210    21714366.682  
  21714372.306         959.765         747.866          43.990          49.460  
 -11075076.896    -8629917.487    23237856.991    23237896.030    23237857.330  
  23237863.587        2805.133        2185.815          38.010          46.100  
 15  7 19  0  3 30.0000000  0  7G02G05G10G12G20G25G29
 -20089711.855   -16182158.856    21317082.493           0.000    21317082.514  
  21317082.482       -1033.247        -805.128          45.230          50.810  
 -27451942.262   -21730099.349    20247513.497    20247543.260    20247513.831  
  20247515.112         549.655         428.301          46.080          56.250  
 -14136318.747   -13454391.300    22434631.232           0.000    22434630.344  
  22434634.110       -3040.816       -2369.471          40.500          46.190  
 -23390284.964   -18226182.269    20857914.944    20857942.030    20857915.007  
  20857916.010       -1489.238       -1160.443          46.810          52.560  
 -13934906.825   -11650647.802    22564517.117           0.000    22564517.285  
  22564521.647        3244.062        2527.829          41.790          44.400  
 -16567820.506   -15308702.593    21708942.006    21708970.810    21708942.062  
  21708947.929         940.536         732.886          43.970          49.580  
 -11159228.915    -8695490.420    23221847.204    23221883.060    23221847.102  
  23221848.899        2804.985        2185.701          40.330          45.060  
 15  7 19  0  4  0.0000000  0  7G02G05G10G12G20G25G29
 -20058668.886   -16157969.539    21322990.044           0.000    21322990.075  
  21322989.712       -1036.289        -807.497          45.420          50.820  
 -27468142.597   -21742722.961    20244430.536    20244456.220    20244431.039  
  20244432.129         530.356         413.265          46.190          56.220  
 -14044922.076   -13383173.164    22452023.120           0.000    22452022.580  
  22452026.870       -3052.275       -2378.397          40.070          46.470  
 -23345338.729   -18191159.255    20866466.755    20866488.050    20866467.663  
  20866469.191       -1507.177       -1174.421          46.680          52.570  
 -14032099.905   -11726382.562    22546021.129           0.000    22546021.557  
  22546026.211        3235.474        2521.143          41.630          44.170  
 -16595748.169   -15330464.408    21703627.132    21703662.570    21703627.676  
  21703633.502         921.305         717.898          43.960          49.640  
 -11243376.113    -8761059.558    23205833.970    23205882.790    23205833.536  
  23205836.052        2804.823        2185.573          40.330          44.900  
 15  7 19  0  4 30.0000000  0  7G02G05G10G12G20G25G29
 -20027534.918   -16133709.318    21328914.715           0.000    21328914.455  
  21328914.628       -1039.307        -809.849          45.380          50.970  
 -27483763.665   -21754895.197    20241458.565    20241490.120    20241458.631  
  20241459.778         511.047         398.216          46.330          56.340  
 -13953182.536   -13311687.873    22469480.623           0.000    22469480.309  
  22469484.558       -3063.666       -2387.269          39.910          46.670  
 -23299854.438   -18155716.973    20875122.093    20875153.050    20875123.088  
  20875124.770       -1525.099       -1188.387          46.700          52.680  
 -14129034.582   -11801915.976    22527575.733           0.000    22527575.476  
  22527580.203        3226.831        2514.402          41.910          44.240  
 -16623098.089   -15351776.030    21698423.239    21698448.220    21698422.894  
  21698428.793         902.021         702.876          43.900          49.670  
 -11327517.551    -8826624.279    23189820.536    23189858.510    23189819.945  
  23189823.913        2804.621        2185.411          38.760          44.190  
 15  7 19  0  5  0.0000000  0  7G02G05G10G12G20G25G29
 -19996310.278   -16109378.437    21334856.637           0.000    21334856.562  
  21334856.354       -1042.328        -812.203          45.520          50.850  
 -27498805.242   -21766615.883    20238595.129    20238628.900    20238595.967  
  20238597.399         491.729         383.165          46.250          56.370  
 -13861102.906   -13239937.571    22487002.904           0.000    22487002.563  
  22487006.435       -3074.960       -2396.070          39.990          46.270  
 -23253833.723   -18119856.699    20883880.297    20883902.320    20883880.795  
  20883882.329       -1542.943       -1202.292          46.840          52.700  
 -14225708.897   -11877246.507    22509179.647           0.000    22509179.162  
  22509183.616        3218.114        2507.620          42.000          44.300  
 -16649869.240   -15372636.665    21693329.434    21693359.140    21693328.968  
  21693334.413         882.720         687.833          44.380          49.610  
 -11411651.587    -8892183.202    23173812.330    23173832.610    23173812.599  
  23173814.183        2804.343        2185.203          41.320          43.960  
 15  7 19  0  5 30.0000000  0  7G02G05G10G12G20G25G29
 -19964995.569   -16084977.374    21340815.973           0.000    21340815.606  
  21340815.412       -1045.312        -814.529          45.680          50.940  
 -27513267.244   -21777884.955    20235844.096    20235871.680    20235844.221  
  20235845.579         472.417         368.116          46.200          56.470  
 -13768685.997   -13167924.439    22504588.554           0.000    22504588.830  
  22504592.326       -3086.148       -2404.791          39.660          45.650  
 -23207278.322   -18083579.783    20892738.738    20892752.440    20892739.621  
  20892741.862       -1560.733       -1216.153          46.760          52.810  
 -14322120.725   -11952372.514    22490832.772           0.000    22490832.785  
  22490836.686        3209.335        2500.778          42.240          44.350  
 -16676060.849   -15393045.706    21688345.233    21688378.090    21688345.223  
  21688350.147         863.389         672.768          44.580          49.540  
 -11495777.244    -8957735.587    23157801.707    23157836.250    23157802.984  
  23157805.025        2804.036        2184.966          40.200          43.700  
 15  7 19  0  6  0.0000000  0  7G02G05G10G12G20G25G29
 -19933591.136   -16060506.402    21346792.322           0.000    21346791.860  
  21346791.386       -1048.302        -816.856          45.960          50.880  
 -27527149.441   -21788702.231    20233201.688    20233230.510    20233202.159  
  20233203.886         453.103         353.064          46.310          56.640  
 -13675934.716   -13095650.761    22522238.770           0.000    22522238.333  
  22522242.534       -3097.243       -2413.434          39.620          45.850  
 -23160189.903   -18046887.531    20901700.396    20901734.340    20901700.518  
  20901702.370       -1578.473       -1229.978          46.760          52.790  
 -14418267.714   -12027292.147    22472536.760           0.000    22472536.515  
  22472540.721        3200.475        2493.873          42.150          44.380  
 -16701671.954   -15413002.408    21683471.845    21683499.670    21683471.863  
  21683476.398         844.009         657.670          44.980          49.570  
 -11579892.898    -9023280.213    23141795.098    23141822.590    23141795.669  
  23141798.488        2803.672        2184.681          40.010          43.980  
 15  7 19  0  6 30.0000000  0  7G02G05G10G12G20G25G29
 -19902097.482   -16035965.898    21352785.563           0.000    21352785.282  
  21352784.501       -1051.281        -819.178          46.160          50.940  
 -27540452.590   -21799068.300    20230669.930    20230705.360    20230670.312  
  20230672.311         433.767         337.997          46.040          56.670  
 -13582852.374   -13023119.122    22539951.183           0.000    22539951.078  
  22539955.682       -3108.253       -2422.005          38.990          45.800  
 -23112570.368   -18009781.427    20910761.821    20910793.330    20910762.221  
  20910764.133       -1596.159       -1243.758          46.620          52.850  
 -14514147.908   -12102003.886    22454291.282           0.000    22454290.787  
  22454294.783        3191.525        2486.903          41.690          44.220  
 -16726701.803   -15432506.181    21678708.661    21678742.560    21678708.512  
  21678713.594         824.627         642.567          44.940          49.660  
 -11663997.260    -9088816.011    23125791.218    23125801.350    23125791.815  
  23125794.422        2803.267        2184.363          40.700          44.480  
 15  7 19  0  7  0.0000000  0  7G02G05G10G12G20G25G29
 -19870514.980   -16011356.171    21358795.506           0.000    21358795.027  
  21358794.662       -1054.229        -821.477          46.060          51.140  
 -27553176.266   -21808982.835    20228248.148    20228282.130    20228249.007  
  20228251.149         414.464         322.956          46.190          56.660  
 -13489441.766   -12950331.701    22557726.934           0.000    22557726.471  
  22557730.860       -3119.129       -2430.490          39.060          45.520  
 -23064421.560   -17972262.902    20919924.801    20919954.790    20919924.805  
  20919926.424       -1613.781       -1257.487          46.660          52.710  
 -14609759.187   -12176506.089    22436097.437           0.000    22436096.742  
  22436100.679        3182.533        2479.887          41.940          44.320  
 -16751149.495   -15451556.323    21674055.974    21674081.950    21674056.053  
  21674061.325         805.211         627.437          44.730          49.670  
 -11748088.908    -9154341.896    23109788.979    23109789.190    23109788.912  
  23109791.714        2802.792        2183.996          39.780          43.890  
 15  7 19  0  7 30.0000000  0  7G02G05G10G12G20G25G29
 -19838844.401   -15986677.815    21364822.464           0.000    21364821.905  
  21364821.196       -1057.149        -823.751          46.200          51.000  
 -27565320.749   -21818446.052    20225938.193    20225969.830    20225938.555  
  20225939.963         395.151         307.911          46.310          56.600  
 -13395705.939   -12877290.841    22575563.820           0.000    22575563.622  
  22575568.122       -3129.924       -2438.899          39.450          45.070  
 -23015745.572   -17934333.587    20929187.322    20929217.060    20929187.534  
  20929189.582       -1631.311       -1271.150          46.430          52.850  
 -14705099.781   -12250797.367    22417955.534           0.000    22417953.987  
  22417957.876        3173.479        2472.840          42.000          44.290  
 -16775014.466   -15470152.401    21669514.641    21669540.760    21669514.859  
  21669519.775         785.764         612.286          44.450          49.650  
 -11832166.301    -9219856.720    23093789.855    23093826.480    23093789.784  
  23093792.458        2802.327        2183.630          40.610          44.380  
 15  7 19  0  8  0.0000000  0  7G02G05G10G12G20G25G29
 -19807086.243   -15961931.214    21370864.853           0.000    21370864.788  
  21370864.619       -1060.068        -826.024          46.000          51.030  
 -27576886.106   -21827458.006    20223736.831    20223760.740    20223737.400  
  20223739.138         375.874         292.889          46.180          56.600  
 -13301647.995   -12803998.972    22593463.224           0.000    22593462.538  
  22593466.838       -3140.601       -2447.219          40.150          44.790  
 -22966543.975   -17895994.708    20938549.366    20938580.090    20938549.964  
  20938551.932       -1648.789       -1284.769          46.300          52.790  
 -14800167.670   -12324876.153    22399862.737           0.000    22399863.049  
  22399866.789        3164.355        2465.731          42.660          44.760  
 -16798295.980   -15488293.836    21665084.481    21665107.400    21665084.394  
  21665089.557         766.310         597.129          44.470          49.580  
 -11916228.528    -9285359.704    23077792.655    23077808.190    23077793.605  
  23077796.526        2801.789        2183.213          41.100          44.750  
 15  7 19  0  8 30.0000000  0  7G02G05G10G12G20G25G29
 -19775240.561   -15937116.413    21376924.853           0.000    21376924.783  
  21376924.440       -1062.968        -828.286          46.080          50.910  
 -27587872.647   -21836018.936    20221646.336    20221670.340    20221646.806  
  20221648.639         356.572         277.848          46.180          56.690  
 -13207270.702   -12730458.261    22611422.545           0.000    22611422.081  
  22611425.778       -3151.201       -2455.475          40.090          44.260  
 -22916818.990   -17857247.993    20948012.257    20948040.180    20948012.249  
  20948014.535       -1666.197       -1298.336          46.220          52.860  
 -14894960.807   -12398740.853    22381824.245           0.000    22381824.410  
  22381828.424        3155.177        2458.574          42.840          44.980  
 -16820993.229   -15505980.003    21660763.949    21660809.840    21660764.808  
  21660770.569         746.838         581.951          44.360          49.690  
 -12000273.865    -9350849.539    23061798.343    23061810.010    23061799.589  
  23061802.474        2801.227        2182.770          41.430          44.880  
 15  7 19  0  9  0.0000000  0  7G02G05G10G12G20G25G29
 -19743308.003   -15912233.907    21383001.905           0.000    21383001.520  
  21383001.307       -1065.854        -830.537          46.230          51.010  
 -27598280.244   -21844128.741    20219666.060    20219692.430    20219666.430  
  20219668.023         337.281         262.816          46.230          56.700  
 -13112576.989   -12656670.980    22629442.014           0.000    22629441.563  
  22629445.423       -3161.690       -2463.657          39.990          43.980  
 -22866572.421   -17818094.849    20957574.092    20957601.030    20957574.361  
  20957575.883       -1683.571       -1311.870          46.320          52.720  
 -14989476.959   -12472389.722    22363838.254           0.000    22363838.357  
  22363842.749        3145.907        2451.350          42.730          45.350  
 -16843105.428   -15523210.294    21656556.680    21656598.120    21656557.256  
  21656562.826         727.322         566.742          44.560          49.760  
 -12084300.707    -9416324.983    23045809.345    23045846.750    23045809.708  
  23045813.270        2800.579        2182.264          41.570          45.410  
 15  7 19  0  9 30.0000000  0  7G02G05G10G12G20G25G29
 -19711289.084   -15887284.110    21389094.791           0.000    21389094.710  
  21389094.171       -1068.747        -832.787          46.070          50.830  
 -27608109.182   -21851787.649    20217796.091    20217828.840    20217796.501  
  20217797.576         317.994         247.788          46.140          56.660  
 -13017570.043   -12582639.626    22647522.135           0.000    22647521.196  
  22647524.996       -3172.098       -2471.763          39.760          43.710  
 -22815806.139   -17778536.735    20967234.715    20967260.810    20967234.739  
  20967236.613       -1700.856       -1325.338          46.060          52.660  
 -15083714.278   -12545821.315    22345906.338           0.000    22345906.124  
  22345910.074        3136.558        2444.071          42.920          45.770  
 -16864632.079   -15539984.309    21652460.695    21652473.870    21652460.850  
  21652466.360         707.787         551.521          44.180          49.680  
 -12168307.977    -9481785.161    23029823.947    23029858.910    23029825.047  
  23029827.118        2799.886        2181.730          41.930          45.690  
 15  7 19  0 10  0.0000000  0  7G02G05G10G12G20G25G29
 -19679184.074   -15862267.231    21395204.013           0.000    21395203.891  
  21395203.573       -1071.589        -835.003          46.450          50.960  
 -27617360.019   -21858996.088    20216035.400    20216062.990    20216036.077  
  20216037.229         298.723         232.769          46.440          56.750  
 -12922252.816   -12508366.495    22665660.261           0.000    22665659.423  
  22665663.683       -3182.383       -2479.775          39.810          43.940  
 -22764522.337   -17738575.360    20976993.365    20977017.680    20976993.439  
  20976995.452       -1718.070       -1338.752          46.160          52.610  
 -15177670.656   -12619033.979    22328027.188           0.000    22328026.155  
  22328030.540        3127.180        2436.759          42.600          45.660  
 -16885572.491   -15556301.513    21648476.451    21648513.220    21648476.560  
  21648481.138         688.232         536.287          44.820          49.600  
 -12252294.090    -9547228.843    23013841.607    23013867.380    23013841.810  
  23013845.600        2799.177        2181.176          41.180          46.560  
 15  7 19  0 10 30.0000000  0  7G02G05G10G12G20G25G29
 -19646993.655   -15837183.800    21401330.409           0.000    21401329.999  
  21401329.249       -1074.434        -837.219          46.490          50.930  
 -27626032.807   -21865754.092    20214384.612    20214412.890    20214385.057  
  20214386.866         279.455         217.757          46.100          56.760  
 -12826628.163   -12433853.818    22683857.744           0.000    22683856.548  
  22683860.483       -3192.566       -2487.709          39.670          44.110  
 -22712722.708   -17698212.044    20986850.997    20986882.640    20986850.745  
  20986852.971       -1735.235       -1352.129          46.220          52.710  
 -15271344.488   -12692026.495    22310201.947           0.000    22310201.416  
  22310204.747        3117.736        2429.397          43.320          45.500  
 -16905926.152   -15572161.509    21644603.519    21644635.380    21644602.900  
  21644607.681         668.677         521.044          44.640          49.500  
 -12336257.397    -9612654.759    22997862.592    22997886.610    22997864.049  
  22997868.062        2798.381        2180.551          41.190          46.960  
 15  7 19  0 11  0.0000000  0  7G02G05G10G12G20G25G29
 -19614718.263   -15812034.166    21407471.810           0.000    21407471.250  
  21407471.212       -1077.253        -839.416          46.110          50.950  
 -27634127.590   -21872061.702    20212843.955    20212868.500    20212844.823  
  20212846.553         260.210         202.760          46.140          56.820  
 -12730699.006   -12359103.867    22702112.005           0.000    22702111.103  
  22702115.129       -3202.674       -2495.592          39.450          44.240  
 -22660409.418   -17657448.473    20996805.243    20996833.710    20996805.732  
  20996807.888       -1752.304       -1365.430          46.370          52.650  
 -15364733.626   -12764797.162    22292429.704           0.000    22292429.718  
  22292433.270        3108.201        2421.977          43.050          45.560  
 -16925692.350   -15587563.743    21640841.249    21640854.230    21640841.229  
  21640846.678         649.086         505.784          44.610          49.530  
 -12420196.489    -9678061.800    22981889.717    22981920.620    22981890.409  
  22981894.731        2797.567        2179.921          40.910          46.910  
 15  7 19  0 11 30.0000000  0  7G02G05G10G12G20G25G29
 -19582358.540   -15786818.819    21413629.766           0.000    21413629.389  
  21413629.136       -1080.066        -841.607          46.290          50.960  
 -27641645.179   -21877919.547    20211413.214    20211437.060    20211414.167  
  20211415.986         240.975         187.770          46.250          56.800  
 -12634468.616   -12284119.185    22720423.116           0.000    22720422.845  
  22720427.251       -3212.679       -2503.375          39.290          44.460  
 -22607584.824   -17616286.483    21006857.584    21006872.700    21006857.747  
  21006859.809       -1769.321       -1378.693          46.380          52.450  
 -15457836.029   -12837344.407    22274713.351           0.000    22274712.711  
  22274716.560        3098.615        2414.504          43.410          45.730  
 -16944870.788   -15602507.980    21637191.366    21637223.140    21637191.890  
  21637197.322         629.479         490.504          44.560          49.640  
 -12504110.467    -9743449.265    22965923.479    22965969.360    22965923.647  
  22965926.770        2796.687        2179.236          41.360          47.310  
 15  7 19  0 12  0.0000000  0  7G02G05G10G12G20G25G29
 -19549914.414   -15761537.704    21419802.777           0.000    21419802.865  
  21419802.751       -1082.868        -843.792          45.910          50.830  
 -27648585.329   -21883327.444    20210093.139    20210120.190    20210093.534  
  20210095.242         221.719         172.770          46.190          56.780  
 -12537939.680   -12208901.871    22738792.526           0.000    22738791.629  
  22738796.556       -3222.573       -2511.092          38.910          45.060  
 -22554250.435   -17574727.247    21017006.942    21017041.750    21017007.099  
  21017008.854       -1786.285       -1391.910          46.510          52.350  
 -15550649.691   -12909666.666    22257051.358           0.000    22257050.635  
  22257054.722        3088.956        2406.975          42.950          45.460  
 -16963460.709   -15616993.629    21633654.345    21633674.860    21633654.518  
  21633659.851         609.849         475.208          44.930          49.720  
 -12587997.478    -9808815.708    22949957.437    22949971.840    22949959.037  
  22949963.541        2795.768        2178.521          40.420          46.900  
 15  7 19  0 12 30.0000000  0  7G02G05G10G12G20G25G29
 -19517386.205   -15736191.065    21425993.073           0.000    21425993.051  
  21425992.729       -1085.661        -845.967          46.090          50.880  
 -27654948.870   -21888286.024    20208881.930    20208907.590    20208882.420  
  20208884.220         202.510         157.801          46.030          56.780  
 -12441115.407   -12133454.430    22757216.254           0.000    22757216.334  
  22757221.143       -3232.354       -2518.717          37.860          45.410  
 -22500408.763   -17532772.725    21027252.529    21027284.070    21027253.006  
  21027254.570       -1803.153       -1405.050          46.710          52.260  
 -15643172.730   -12981762.457    22239444.250           0.000    22239444.061  
  22239448.004        3079.250        2399.407          43.040          45.700  
 -16981461.670   -15631020.348    21630229.207    21630263.760    21630228.958  
  21630234.190         590.222         459.913          44.770          49.640  
 -12671856.035    -9874159.988    22934000.885    22934039.370    22934001.447  
  22934005.315        2794.809        2177.771          40.850          46.730  
 15  7 19  0 13  0.0000000  0  7G02G05G10G12G20G25G29
 -19484774.503   -15710779.367    21432198.763           0.000    21432198.833  
  21432198.600       -1088.433        -848.132          45.910          50.760  
 -27660736.025   -21892795.472    20207780.974    20207809.650    20207781.224  
  20207782.911         183.297         142.826          46.140          56.760  
 -12343998.806   -12057779.214    22775697.105           0.000    22775696.963  
  22775701.937       -3242.062       -2526.274          37.760          45.300  
 -22446061.947   -17490424.581    21037594.592    21037621.670    21037595.090  
  21037596.647       -1819.962       -1418.153          47.090          52.400  
 -15735403.284   -13053630.330    22221893.717           0.000    22221893.035  
  22221897.202        3069.465        2391.784          42.950          45.740  
 -16998873.176   -15644587.753    21626916.222    21626946.180    21626915.911  
  21626921.026         570.554         444.588          45.040          49.890  
 -12755684.556    -9939480.851    22918049.614    22918067.550    22918050.358  
  22918053.073        2793.760        2176.955          41.670          46.370  
 15  7 19  0 13 30.0000000  0  7G02G05G10G12G20G25G29
 -19452079.749   -15685302.955    21438420.067           0.000    21438420.100  
  21438420.261       -1091.223        -850.297          45.970          50.840  
 -27665946.866   -21896855.845    20206789.466    20206817.150    20206789.773  
  20206791.394         164.086         127.858          46.290          56.850  
 -12246592.552   -11981878.299    22794233.927           0.000    22794232.919  
  22794237.707       -3251.687       -2533.782          37.470          45.110  
 -22391211.755   -17447684.190    21048031.931    21048052.730    21048032.709  
  21048034.400       -1836.724       -1431.214          47.350          52.410  
 -15827339.310   -13125268.699    22204398.620           0.000    22204398.313  
  22204401.855        3059.592        2384.099          43.100          45.350  
 -17015694.749   -15657695.470    21623715.230    21623753.210    21623715.068  
  21623720.170         550.867         429.247          45.070          50.080  
 -12839481.234   -10004776.916    22902105.101    22902118.700    22902104.787  
  22902106.528        2792.662        2176.095          41.790          45.800  
 15  7 19  0 14  0.0000000  0  7G02G05G10G12G20G25G29
 -19419302.538   -15659762.293    21444657.417           0.000    21444657.463  
  21444657.822       -1093.925        -852.409          45.870          50.910  
 -27670582.065   -21900467.668    20205906.926    20205930.620    20205907.748  
  20205909.425         144.936         112.936          46.400          56.840  
 -12148899.769   -11905754.087    22812824.648           0.000    22812824.023  
  22812828.043       -3261.163       -2541.162          38.910          45.050  
 -22335860.575   -17404553.423    21058566.128    21058584.490    21058565.878  
  21058567.588       -1853.345       -1444.166          47.390          52.490  
 -15918978.969   -13196676.141    22186959.889           0.000    22186959.496  
  22186963.395        3049.709        2376.396          43.020          45.460  
 -17031926.089   -15670343.251    21620626.108    21620653.650    21620626.360  
  21620631.440         531.214         413.931          45.250          50.010  
 -12923245.074   -10070047.385    22886164.277    22886168.410    22886164.632  
  22886167.116        2791.581        2175.251          41.840          45.590  
 15  7 19  0 14 30.0000000  0  7G02G05G10G12G20G25G29
 -19386442.871   -15634157.380    21450910.477           0.000    21450910.616  
  21450910.737       -1096.687        -854.559          46.060          50.860  
 -27674642.081   -21903631.292    20205134.058    20205157.460    20205134.838  
  20205136.709         125.763          97.998          46.300          56.890  
 -12050923.303   -11829408.838    22831468.859           0.000    22831468.296  
  22831472.787       -3270.569       -2548.496          38.770          45.480  
 -22280010.130   -17361033.620    21069193.900    21069211.580    21069193.961  
  21069195.506       -1869.955       -1457.107          47.360          52.380  
 -16010320.118   -13267850.953    22169578.358           0.000    22169578.160  
  22169581.733        3039.734        2368.619          43.050          45.620  
 -17047566.616   -15682530.653    21617649.834    21617682.500    21617649.778  
  21617654.971         511.506         398.576          45.150          50.050  
 -13006974.458   -10135291.026    22870231.519    22870256.740    22870231.544  
  22870232.880        2790.390        2174.329          42.180          45.050  
 15  7 19  0 15  0.0000000  0  7G02G05G10G12G20G25G29
 -19353501.096   -15608488.492    21457179.391           0.000    21457179.547  
  21457179.522       -1099.420        -856.694          45.900          50.890  
 -27678127.580   -21906347.246    20204471.376    20204501.720    20204471.864  
  20204473.261         106.604          83.067          46.390          56.870  
 -11952666.234   -11752844.936    22850165.986           0.000    22850165.641  
  22850170.793       -3279.891       -2555.757          38.680          45.370  
 -22223663.237   -17317126.975    21079916.390    21079943.000    21079916.513  
  21079917.791       -1886.491       -1469.994          47.330          52.260  
 -16101361.261   -13338792.003    22152254.201           0.000    22152253.333  
  22152256.852        3029.664        2360.770          42.900          45.360  
 -17062616.142   -15694257.537    21614786.409    21614818.510    21614785.837  
  21614791.037         491.779         383.208          45.100          49.960  
 -13090667.502   -10200506.326    22854305.618    22854318.330    22854305.345  
  22854307.112        2789.148        2173.363          42.160          45.630  
 15  7 19  0 15 30.0000000  0  7G02G05G10G12G20G25G29
 -19320477.935   -15582756.180    21463463.851           0.000    21463463.853  
  21463463.330       -1102.130        -858.799          45.940          50.700  
 -27681039.294   -21908616.091    20203917.823    20203952.360    20203917.989  
  20203919.291          87.487          68.173          46.100          56.810  
 -11854131.631   -11676064.803    22868916.601           0.000    22868916.638  
  22868921.187       -3289.093       -2562.921          38.580          44.560  
 -22166821.998   -17272835.123    21090733.054    21090760.500    21090733.189  
  21090734.132       -1902.935       -1482.805          47.060          51.930  
 -16192100.247   -13409497.607    22134987.049           0.000    22134986.279  
  22134989.759        3019.587        2352.919          42.880          45.580  
 -17077074.460   -15705523.743    21612034.393    21612063.130    21612034.765  
  21612039.910         472.077         367.852          44.800          49.990  
 -13174323.214   -10265692.532    22838384.660    22838400.350    22838385.372  
  22838387.445        2787.888        2172.372          41.110          45.410  
 15  7 19  0 16  0.0000000  0  7G02G05G10G12G20G25G29
 -19287373.413   -15556960.462    21469762.568           0.000    21469762.761  
  21469762.931       -1104.811        -860.892          45.820          50.670  
 -27683377.085   -21910437.724    20203471.880    20203503.650    20203472.518  
  20203474.474          68.388          53.288          46.250          56.900  
 -11755322.378   -11599070.608    22887721.379           0.000    22887720.057  
  22887723.592       -3298.177       -2570.005          39.920          43.850  
 -22109488.321   -17228159.551    21101642.729    21101673.350    21101643.136  
  21101644.598       -1919.292       -1495.551          47.190          52.000  
 -16282535.291   -13479966.361    22117777.372           0.000    22117776.696  
  22117780.552        3009.421        2344.999          43.300          45.880  
 -17090940.904   -15716328.747    21609396.001    21609425.770    21609396.058  
  21609400.980         452.356         352.487          45.100          50.080  
 -13257939.774   -10330848.228    22822473.058    22822498.200    22822473.481  
  22822476.097        2786.560        2171.339          41.190          45.620  
 15  7 19  0 16 30.0000000  0  7G02G05G10G12G20G25G29
 -19254188.005   -15531101.714    21476078.674           0.000    21476078.188  
  21476078.112       -1107.538        -863.020          45.760          50.710  
 -27685141.797   -21911812.807    20203136.061    20203162.640    20203136.544  
  20203138.660          49.273          38.395          46.000          56.880  
 -11656241.287   -11521864.592    22906575.042           0.000    22906574.414  
  22906578.287       -3307.208       -2577.047          39.580          43.750  
 -22051664.344   -17183101.926    21112646.061    21112681.370    21112646.233  
  21112648.188       -1935.614       -1508.269          46.590          51.920  
 -16372664.361   -13550196.708    22100626.306           0.000    22100626.051  
  22100629.348        2999.181        2337.021          43.580          45.820  
 -17104215.284   -15726672.400    21606870.053    21606903.060    21606869.704  
  21606875.054         432.598         337.089          44.740          50.140  
 -13341515.535   -10395972.130    22806569.382    22806597.880    22806568.871  
  22806571.997        2785.162        2170.252          40.970          45.700  
 15  7 19  0 17  0.0000000  0  7G02G05G10G12G20G25G29
 -19220921.964   -15505180.138    21482408.540           0.000    21482408.045  
  21482408.064       -1110.214        -865.098          45.560          50.470  
 -27686334.040   -21912741.811    20202909.604    20202942.810    20202909.787  
  20202911.717          30.204          23.533          45.850          56.800  
 -11556891.596   -11444449.301    22925480.928           0.000    22925479.968  
  22925483.751       -3316.107       -2583.979          39.460          43.670  
 -21993352.648   -17137664.263    21123741.880    21123762.830    21123742.522  
  21123744.597       -1951.848       -1520.917          46.550          51.920  
 -16462485.838   -13620187.377    22083533.713           0.000    22083533.416  
  22083536.906        2988.888        2329.001          43.860          46.110  
 -17116897.465   -15736554.601    21604456.734    21604490.420    21604456.217  
  21604461.796         412.858         321.706          44.760          50.170  
 -13425049.061   -10461063.142    22790674.118    22790714.890    22790674.623  
  22790675.534        2783.714        2169.130          41.960          45.200  
 15  7 19  0 17 30.0000000  0  7G02G05G10G12G20G25G29
 -19187575.717   -15479196.060    21488754.027           0.000    21488754.039  
  21488754.100       -1112.877        -867.175          45.550          50.530  
 -27686954.260   -21913225.085    20202791.233    20202825.560    20202791.731  
  20202793.651          11.153           8.690          45.810          56.800  
 -11457276.219   -11366826.959    22944436.296           0.000    22944436.208  
  22944440.023       -3324.916       -2590.841          39.310          42.870  
 -21934555.320   -17091848.186    21134931.346    21134963.320    21134931.428  
  21134933.417       -1967.981       -1533.492          46.430          52.030  
 -16551997.658   -13689936.749    22066500.171           0.000    22066499.738  
  22066503.806        2978.544        2320.938          43.930          46.480  
 -17128987.169   -15745975.131    21602155.995    21602198.650    21602156.066  
  21602161.085         393.114         306.323          44.860          50.170  
 -13508538.755   -10526119.982    22774786.119    22774819.330    22774786.987  
  22774789.033        2782.223        2167.968          42.530          46.060  
 15  7 19  0 18  0.0000000  0  7G02G05G10G12G20G25G29
 -19154149.395   -15453149.590    21495114.264           0.000    21495114.420  
  21495114.565       -1115.550        -869.263          45.100          50.360  
 -27687003.197   -21913263.202    20202781.889    20202807.060    20202782.559  
  20202784.312          -7.889          -6.147          45.800          56.750  
 -11357397.954   -11288999.779    22963442.537           0.000    22963442.439  
  22963446.002       -3333.643       -2597.648          39.030          42.520  
 -21875274.558   -17045655.413    21146212.430    21146233.280    21146212.453  
  21146214.133       -1984.076       -1546.033          46.540          51.940  
 -16641197.893   -13759443.332    22049524.705           0.000    22049525.257  
  22049529.241        2968.115        2312.815          43.660          46.320  
 -17140484.079   -15754933.750    21599968.316    21599992.860    21599968.345  
  21599973.516         373.330         290.910          44.830          50.270  
 -13591982.598   -10591141.124    22758907.558    22758917.460    22758907.417  
  22758909.276        2780.671        2166.756          42.320          45.710  
 15  7 19  0 18 30.0000000  0  7G02G05G10G12G20G25G29
 -19120643.330   -15427040.978    21501490.812           0.000    21501490.517  
  21501490.826       -1118.186        -871.312          45.140          50.380  
 -27686481.460   -21912856.638    20202880.759    20202913.500    20202881.698  
  20202883.582         -26.905         -20.960          46.010          56.810  
 -11257259.769   -11210970.048    22982498.371           0.000    22982497.389  
  22982501.456       -3342.236       -2604.343          38.000          42.280  
 -21815512.670   -16999087.740    21157584.012    21157607.790    21157584.475  
  21157586.534       -2000.039       -1558.470          46.200          52.060  
 -16730084.782   -13828705.755    22032610.724           0.000    22032610.797  
  22032614.552        2957.664        2304.671          43.590          46.380  
 -17151388.037   -15763430.329    21597892.957    21597931.740    21597893.272  
  21597898.603         353.588         275.522          44.860          50.250  
 -13675379.300   -10656125.525    22743037.274    22743068.180    22743037.857  
  22743040.306        2779.085        2165.521          42.360          46.540  
 15  7 19  0 19  0.0000000  0  7G02G05G10G12G20G25G29
 -19087058.140   -15400870.705    21507882.033           0.000    21507881.327  
  21507881.580       -1120.823        -873.366          44.980          50.230  
 -27685389.819   -21912005.998    20203088.750    20203116.820    20203089.578  
  20203091.336         -45.877         -35.748          46.010          56.810  
 -11156864.564   -11132740.066    23001602.085           0.000    23001601.878  
  23001606.385       -3350.758       -2610.976          38.010          42.930  
 -21755272.107   -16952147.076    21169047.431    21169075.680    21169047.776  
  21169049.743       -2015.972       -1570.884          46.100          51.810  
 -16818656.621   -13897722.678    22015757.078           0.000    22015756.372  
  22015759.587        2947.125        2296.458          43.990          46.470  
 -17161698.982   -15771464.823    21595931.028    21595956.840    21595931.210  
  21595936.262         333.824         260.122          44.960          50.170  
 -13758727.511   -10721072.130    22727175.854    22727206.900    22727177.169  
  22727178.913        2777.433        2164.236          42.430          46.500  
 15  7 19  0 19 30.0000000  0  7G02G05G10G12G20G25G29
 -19053394.196   -15374639.064    21514286.898           0.000    21514287.130  
  21514287.780       -1123.445        -875.411          44.890          50.330  
 -27683728.862   -21910711.735    20203405.124    20203433.990    20203405.931  
  20203407.425         -64.845         -50.529          46.150          56.810  
 -11056215.428   -11054312.220    23020756.901           0.000    23020755.212  
  23020759.083       -3359.173       -2617.534          37.640          42.870  
 -21694555.517   -16904835.484    21180601.739    21180612.970    21180601.767  
  21180603.819       -2031.804       -1583.225          46.170          51.720  
 -16906911.671   -13966492.764    21998962.077           0.000    21998961.728  
  21998965.074        2936.533        2288.206          44.060          46.410  
 -17171416.845   -15779037.171    21594081.834    21594112.030    21594081.864  
  21594087.114         314.054         244.716          44.990          50.190  
 -13842025.310   -10785979.450    22711324.776    22711355.350    22711325.945  
  22711328.559        2775.729        2162.906          42.410          47.200  
 15  7 19  0 20  0.0000000  0  7G02G05G10G12G20G25G29
 -19019651.342   -15348345.932    21520709.226           0.000    21520708.651  
  21520708.568       -1126.066        -877.452          45.100          50.070  
 -27681499.394   -21908974.474    20203829.549    20203860.310    20203829.973  
  20203831.513         -83.783         -65.283          46.220          56.760  
 -10955315.113   -10975688.643    23039955.015           0.000    23039955.007  
  23039959.089       -3367.493       -2624.027          36.180          42.330  
 -21633364.705   -16857154.362    21192245.828    21192275.440    21192246.106  
  21192247.928       -2047.571       -1595.509          46.150          51.550  
 -16994848.002   -14035014.492    21982228.442           0.000    21982227.653  
  21982231.643        2925.865        2279.894          43.930          46.640  
 -17180541.503   -15786147.293    21592345.676    21592379.270    21592345.394  
  21592350.556         294.255         229.292          44.820          50.060  
 -13925271.216   -10850846.336    22695483.561    22695542.160    22695483.990  
  22695487.420        2773.985        2161.542          41.750          47.490  
 15  7 19  0 20 30.0000000  0  7G02G05G10G12G20G25G29
 -18985830.018   -15321991.657    21527144.719           0.000    21527144.522  
  21527144.548       -1128.683        -879.489          45.190          49.970  
 -27678701.986   -21906794.670    20204361.823    20204389.940    20204362.381  
  20204363.780        -102.706         -80.030          45.970          56.780  
 -10854166.602   -10896871.674    23059204.622           0.000    23059202.647  
  23059207.477       -3375.735       -2630.436          35.760          42.890  
 -21571702.344   -16809105.795    21203979.550    21204017.770    21203980.273  
  21203982.154       -2063.246       -1607.724          46.110          51.570  
 -17082463.300   -14103286.064    21965554.964           0.000    21965554.869  
  21965558.897        2915.121        2271.522          43.860          46.450  
 -17189072.694   -15792794.982    21590721.069    21590757.950    21590721.553  
  21590727.044         274.487         213.885          44.870          49.960  
 -14008463.391   -10915671.345    22679653.888    22679677.190    22679653.106  
  22679655.781        2772.146        2160.115          41.670          47.360  
 15  7 19  0 21  0.0000000  0  7G02G05G10G12G20G25G29
 -18951930.315   -15295576.308    21533595.918           0.000    21533595.325  
  21533595.475       -1131.286        -881.519          45.320          49.890  
 -27675337.480   -21904172.963    20205001.999    20205034.600    20205002.182  
  20205004.149        -121.587         -94.742          45.830          56.780  
 -10752772.994   -10817863.743    23078497.774           0.000    23078497.630  
  23078501.901       -3383.817       -2636.739          36.010          42.970  
 -21509570.923   -16760691.732    21215803.309    21215830.130    21215803.677  
  21215805.076       -2078.825       -1619.864          46.250          51.600  
 -17169755.983   -14171306.256    21948943.866           0.000    21948944.000  
  21948947.543        2904.387        2263.160          44.110          46.710  
 -17197010.570   -15798980.343    21589211.442    21589246.830    21589211.352  
  21589216.224         254.731         198.489          45.140          49.940  
 -14091600.241   -10980453.233    22663832.778    22663854.990    22663833.338  
  22663836.183        2770.311        2158.679          42.180          47.600  
 15  7 19  0 21 30.0000000  0  7G02G05G10G12G20G25G29
 -18917952.856   -15269100.368    21540062.323           0.000    21540061.739  
  21540061.159       -1133.869        -883.536          45.690          49.880  
 -27671406.442   -21901109.803    20205750.385    20205779.010    20205750.508  
  20205752.180        -140.458        -109.447          46.000          56.830  
 -10651137.078   -10738666.989    23097838.260           0.000    23097838.216  
  23097842.892       -3391.864       -2643.009          36.680          43.710  
 -21446972.601   -16711913.859    21227715.712    21227734.030    21227715.508  
  21227717.634       -2094.361       -1631.965          46.040          51.800  
 -17256724.785   -14239074.064    21932395.098           0.000    21932394.403  
  21932397.750        2893.543        2254.704          44.260          46.750  
 -17204354.882   -15804703.188    21587813.985    21587851.180    21587814.041  
  21587818.686         234.922         183.055          45.340          49.960  
 -14174680.039   -11045190.687    22648022.960    22648072.210    22648023.784  
  22648025.786        2768.371        2157.171          42.640          46.980  
 15  7 19  0 22  0.0000000  0  7G02G05G10G12G20G25G29
 -18883897.841   -15242563.994    21546542.711           0.000    21546541.994  
  21546541.790       -1136.460        -885.550          45.710          49.970  
 -27666910.135   -21897606.167    20206605.760    20206634.180    20206606.065  
  20206607.864        -159.279        -124.113          45.950          56.810  
 -10549262.058   -10659283.909    23117224.823           0.000    23117224.784  
  23117229.409       -3399.763       -2649.169          37.990          44.060  
 -21383909.896   -16662774.126    21239715.735    21239740.740    21239715.923  
  21239717.962       -2109.789       -1643.989          46.240          51.840  
 -17343367.849   -14306588.064    21915907.001           0.000    21915906.658  
  21915909.422        2882.672        2246.237          44.480          46.420  
 -17211105.994   -15809963.799    21586528.536    21586559.230    21586529.452  
  21586534.185         215.165         167.658          45.290          50.090  
 -14257701.245   -11109882.483    22632225.060    22632267.600    22632224.513  
  22632227.483        2766.402        2155.631          42.370          46.890  
 15  7 19  0 22 30.0000000  0  7G02G05G10G12G20G25G29
 -18849765.010   -15215966.986    21553038.441           0.000    21553037.594  
  21553037.202       -1139.043        -887.565          45.930          50.170  
 -27661849.015   -21893662.417    20207568.327    20207601.530    20207569.198  
  20207570.880        -178.095        -138.776          46.020          56.750  
 -10447150.470   -10579716.463    23136657.204           0.000    23136655.887  
  23136660.592       -3407.610       -2655.273          37.970          44.180  
 -21320384.975   -16613274.231    21251804.539    21251831.380    21251804.592  
  21251806.581       -2125.159       -1655.965          46.410          51.840  
 -17429683.106   -14373846.627    21899482.070           0.000    21899481.694  
  21899484.599        2871.705        2237.688          44.840          46.730  
 -17217263.423   -15814761.796    21585357.180    21585397.710    21585357.463  
  21585362.607         195.368         152.237          45.290          50.150  
 -14340662.102   -11174527.278    22616438.267    22616461.050    22616438.023  
  22616440.144        2764.357        2154.040          42.620          46.810  
 15  7 19  0 23  0.0000000  0  7G02G05G10G12G20G25G29
 -18815554.861   -15189309.723    21559547.629           0.000    21559547.151  
  21559547.316       -1141.625        -889.577          45.750          50.360  
 -27656224.140   -21889279.380    20208639.368    20208658.440    20208639.805  
  20208640.962        -196.876        -153.410          46.250          56.630  
 -10344805.414   -10499967.130    23156131.140           0.000    23156131.738  
  23156136.538       -3415.367       -2661.322          38.340          44.950  
 -21256400.720   -16563416.401    21263979.387    21263998.940    21263980.355  
  21263982.150       -2140.443       -1667.878          46.510          51.610  
 -17515669.106   -14440848.628    21883119.478           0.000    21883118.676  
  21883121.474        2860.689        2229.105          44.910          46.590  
 -17222827.575   -15819097.503    21584298.367    21584342.620    21584298.414  
  21584303.816         175.574         136.814          45.190          50.190  
 -14423560.902   -11239123.697    22600662.752    22600685.260    22600663.159  
  22600664.801        2762.230        2152.386          42.760          46.870  
 15  7 19  0 23 30.0000000  0  7G02G05G10G12G20G25G29
 -18781268.035   -15162592.723    21566071.750           0.000    21566071.303  
  21566072.087       -1144.155        -891.551          45.570          50.460  
 -27650036.436   -21884457.774    20209817.053    20209845.540    20209817.537  
  20209818.677        -215.621        -168.014          46.410          56.720  
 -10242229.900   -10420038.189    23175651.754           0.000    23175652.017  
  23175656.576       -3422.991       -2667.266          38.990          45.130  
 -21191959.335   -16513202.373    21276242.717    21276276.630    21276243.278  
  21276245.109       -2155.622       -1679.704          46.600          51.640  
 -17601323.825   -14507592.490    21866818.999           0.000    21866818.863  
  21866822.195        2849.629        2220.487          44.720          46.790  
 -17227798.593   -15822971.026    21583351.793    21583371.590    21583352.466  
  21583357.950         155.819         121.417          45.300          50.210  
 -14506396.134   -11303670.573    22584899.860    22584934.550    22584900.387  
  22584901.735        2760.099        2150.725          43.230          46.600  
 15  7 19  0 24  0.0000000  0  7G02G05G10G12G20G25G29
 -18746904.578   -15135816.005    21572610.744           0.000    21572610.600  
  21572610.785       -1146.734        -893.560          45.730          50.150  
 -27643286.822   -21879198.326    20211101.635    20211128.250    20211101.967  
  20211103.132        -234.338        -182.603          46.430          56.760  
 -10139426.546   -10339931.735    23195214.795           0.000    23195214.642  
  23195219.321       -3430.542       -2673.149          38.640          44.770  
 -21127063.663   -16462634.348    21288592.213    21288616.370    21288592.137  
  21288594.166       -2170.756       -1691.499          46.710          51.660  
 -17686645.662   -14574076.962    21850582.155           0.000    21850582.141  
  21850585.594        2838.497        2211.813          44.570          46.670  
 -17232176.559   -15826382.435    21582518.768    21582554.410    21582519.233  
  21582524.866         136.049         106.017          45.270          50.250  
 -14589165.670   -11368166.267    22569149.454    22569194.730    22569149.465  
  22569151.974        2757.870        2148.989          43.190          46.960  
 15  7 19  0 24 30.0000000  0  7G02G05G10G12G20G25G29
 -18712464.536   -15108979.611    21579164.881           0.000    21579164.527  
  21579164.406       -1149.273        -895.536          45.850          50.260  
 -27635976.631   -21873502.064    20212492.293    20212518.440    20212492.648  
  20212494.249        -253.011        -197.151          46.420          56.780  
 -10036398.618   -10259650.295    23214820.524           0.000    23214820.624  
  23214824.785       -3437.997       -2678.951          38.460          44.310  
 -21061715.527   -16411713.754    21301027.153    21301048.060    21301027.686  
  21301029.857       -2185.783       -1703.211          46.910          51.810  
 -17771633.115   -14640300.882    21834409.648           0.000    21834409.973  
  21834412.700        2827.300        2203.091          44.660          46.650  
 -17235961.654   -15829331.865    21581799.287    21581831.120    21581799.549  
  21581804.574         116.290          90.617          45.580          50.220  
 -14671868.242   -11432609.781    22553410.609    22553454.670    22553410.987  
  22553412.605        2755.597        2147.214          42.580          45.930  
 15  7 19  0 25  0.0000000  0  7G02G05G10G12G20G25G29
 -18677948.104   -15082083.696    21585734.133           0.000    21585733.368  
  21585733.069       -1151.797        -897.502          46.190          50.380  
 -27628105.826   -21867368.966    20213990.180    20214018.950    20213990.819  
  20213992.020        -271.679        -211.697          46.330          56.750  
  -9933148.787   -10179195.941    23234468.210           0.000    23234468.497  
  23234472.784       -3445.319       -2684.666          37.780          43.380  
 -20995917.773   -16360442.813    21313548.344    21313580.200    21313548.757  
  21313550.756       -2200.714       -1714.844          46.980          51.810  
 -17856283.816   -14706262.404    21818302.199           0.000    21818301.320  
  21818303.993        2816.068        2194.339          44.750          46.490  
 -17239153.681   -15831819.162    21581191.931    21581215.280    21581192.084  
  21581196.941          96.526          75.219          45.620          50.010  
 -14754501.770   -11496999.497    22537686.399    22537706.600    22537686.571  
  22537689.578        2753.279        2145.409          42.520          46.500  
 15  7 19  0 25 30.0000000  0  7G02G05G10G12G20G25G29
 -18643355.811   -15055128.667    21592316.278           0.000    21592316.178  
  21592315.758       -1154.332        -899.479          46.200          50.380  
 -27619675.420   -21860799.807    20215594.001    20215621.780    20215594.598  
  20215596.058        -290.311        -226.214          46.170          56.620  
  -9829680.050   -10098570.994    23254158.251           0.000    23254157.838  
  23254162.177       -3452.572       -2690.308          37.660          42.490  
 -20929673.218   -16308823.714    21326155.384    21326189.400    21326155.041  
  21326156.826       -2215.563       -1726.411          47.070          51.790  
 -17940596.529   -14771960.561    21802257.632           0.000    21802257.185  
  21802260.213        2804.781        2185.538          44.610          46.920  
 -17241753.108   -15833844.698    21580698.199    21580728.300    21580697.539  
  21580702.177          76.787          59.831          45.570          50.090  
 -14837064.419   -11561333.993    22521975.190    22522003.220    22521975.709  
  22521977.107        2750.894        2143.555          42.510          45.900  
 15  7 19  0 26  0.0000000  0  7G02G05G10G12G20G25G29
 -18608687.316   -15028114.256    21598913.309           0.000    21598913.082  
  21598912.824       -1156.893        -901.473          46.070          50.250  
 -27610687.137   -21853795.944    20217304.282    20217338.330    20217304.841  
  20217306.325        -308.919        -240.716          46.010          56.560  
  -9725995.201   -10017777.634    23273887.827           0.000    23273888.146  
  23273892.676       -3459.729       -2695.898          36.710          42.270  
 -20862984.035   -16256858.150    21338844.919    21338862.750    21338845.351  
  21338847.300       -2230.371       -1737.950          46.820          51.790  
 -18024569.394   -14837393.897    21786277.586           0.000    21786277.748  
  21786280.767        2793.398        2176.678          44.700          47.200  
 -17243760.016   -15835408.531    21580315.651    21580341.570    21580315.439  
  21580320.553          57.012          44.424          45.690          50.180  
 -14919554.541   -11625611.960    22506277.863    22506308.270    22506277.938  
  22506280.345        2748.436        2141.638          42.220          46.480  
 15  7 19  0 26 30.0000000  0  7G02G05G10G12G20G25G29
 -18573943.317   -15001041.017    21605523.870           0.000    21605524.198  
  21605524.632       -1159.400        -903.430          45.800          50.380  
 -27601141.632   -21846357.877    20219120.883    20219148.680    20219121.180  
  20219122.852        -327.473        -255.171          45.900          56.550  
  -9622097.378    -9936818.351    23293659.433           0.000    23293659.368  
  23293663.987       -3466.793       -2701.396          36.220          42.600  
 -20795853.106   -16204548.378    21351619.959    21351638.700    21351620.286  
  21351621.712       -2245.053       -1749.391          46.960          51.560  
 -18108200.938   -14902561.276    21770363.424           0.000    21770363.170  
  21770366.372        2782.000        2167.789          44.850          47.500  
 -17245174.935   -15836511.070    21580045.586    21580083.600    21580045.968  
  21580051.188          37.287          29.054          45.420          50.090  
 -15001970.657   -11689832.259    22490593.236    22490611.860    22490594.430  
  22490596.888        2745.937        2139.692          42.150          46.720  
 15  7 19  0 27  0.0000000  0  7G02G05G10G12G20G25G29
 -18539123.896   -14973909.005    21612149.765           0.000    21612150.189  
  21612150.295       -1161.893        -905.371          45.550          50.410  
 -27591039.568   -21838486.129    20221043.355    20221066.380    20221043.555  
  20221045.184        -345.964        -269.584          46.140          56.480  
  -9517989.140    -9855695.117    23313471.000           0.000    23313470.268  
  23313474.933       -3473.740       -2706.800          35.990          41.590  
 -20728282.382   -16151895.900    21364478.104    21364498.470    21364478.273  
  21364479.953       -2259.648       -1760.761          46.640          51.390  
 -18191489.245   -14967461.188    21754513.595           0.000    21754513.853  
  21754517.444        2770.552        2158.866          44.730          47.730  
 -17245997.921   -15837152.371    21579889.589    21579914.610    21579889.446  
  21579894.884          17.573          13.697          45.380          50.240  
 -15084310.853   -11753993.406    22474924.618    22474959.820    22474925.805  
  22474927.907        2743.391        2137.706          42.350          47.010  
 15  7 19  0 27 30.0000000  0  7G02G05G10G12G20G25G29
 -18504229.110   -14946718.271    21618790.830           0.000    21618790.337  
  21618790.734       -1164.419        -907.339          45.400          50.430  
 -27580382.723   -21830182.081    20223070.699    20223105.350    20223071.557  
  20223073.046        -364.470        -284.001          46.110          56.450  
  -9413673.469    -9774410.242    23333321.973           0.000    23333321.084  
  23333325.223       -3480.618       -2712.166          35.580          40.790  
 -20660275.056   -16098903.215    21377419.372    21377443.280    21377419.690  
  21377421.319       -2274.157       -1772.071          46.560          51.280  
 -18274432.922   -15032092.563    21738730.279           0.000    21738730.091  
  21738733.431        2759.039        2149.898          44.760          47.500  
 -17246229.498   -15837332.830    21579844.999    21579865.610    21579845.147  
  21579850.826          -2.118          -1.652          45.320          50.160  
 -15166573.469   -11818094.101    22459271.903    22459273.720    22459271.774  
  22459274.037        2740.776        2135.671          42.300          47.290  
 15  7 19  0 28  0.0000000  0  7G02G05G10G12G20G25G29
 -18469258.716   -14919468.626    21625444.780           0.000    21625444.942  
  21625445.226       -1166.954        -909.313          45.310          50.320  
 -27569171.799   -21821446.288    20225204.908    20225231.980    20225205.254  
  20225206.438        -382.930        -298.388          46.270          56.470  
  -9309153.737    -9692965.948    23353211.198           0.000    23353210.953  
  23353215.155       -3487.394       -2717.446          36.000          41.230  
 -20591833.661   -16045572.294    21390443.110    21390468.180    21390443.638  
  21390445.565       -2288.593       -1783.319          46.480          51.280  
 -18357030.070   -15096453.913    21723012.504           0.000    21723012.043  
  21723015.529        2747.439        2140.857          44.650          47.410  
 -17245869.739   -15837052.509    21579913.464    21579947.240    21579913.621  
  21579918.997         -21.845         -17.025          45.040          50.040  
 -15248756.448   -11882132.736    22443632.849    22443666.890    22443632.765  
  22443635.665        2738.062        2133.560          42.730          47.780  
 15  7 19  0 28 30.0000000  0  7G02G05G10G12G20G25G29
 -18434213.357   -14892160.560    21632114.359           0.000    21632114.168  
  21632114.330       -1169.426        -911.242          45.500          50.300  
 -27557407.999   -21812279.678    20227443.453    20227476.740    20227443.956  
  20227444.970        -401.337        -312.731          46.270          56.470  
  -9204431.788    -9611364.488    23373138.680           0.000    23373138.465  
  23373143.103       -3494.089       -2722.658          35.420          41.530  
 -20522960.753   -15991905.138    21403548.968    21403586.950    21403549.736  
  21403551.725       -2302.937       -1794.495          46.500          51.260  
 -18439279.386   -15160544.235    21707361.247           0.000    21707360.650  
  21707363.806        2735.812        2131.797          44.920          47.570  
 -17244919.082   -15836311.747    21580094.356    21580125.610    21580094.549  
  21580100.064         -41.546         -32.374          44.970          50.030  
 -15330858.146   -11946108.039    22428009.624    22428042.250    22428009.622  
  22428011.435        2735.338        2131.431          43.220          47.560  
 15  7 19  0 29  0.0000000  0  7G02G05G10G12G20G25G29
 -18399093.386   -14864794.353    21638797.313           0.000    21638797.071  
  21638797.245       -1171.937        -913.198          45.220          50.190  
 -27545092.324   -21802683.040    20229786.666    20229813.540    20229787.176  
  20229788.780        -419.730        -327.060          46.040          56.530  
  -9099510.915    -9529608.023    23393105.898           0.000    23393104.690  
  23393108.492       -3500.675       -2727.784          36.670          41.400  
 -20453658.858   -15937903.693    21416737.955    21416751.040    21416737.836  
  21416739.518       -2317.204       -1805.612          46.220          51.120  
 -18521178.838   -15224361.921    21691776.212           0.000    21691775.794  
  21691779.043        2724.114        2122.685          45.020          47.740  
 -17243377.905   -15835110.839    21580387.321    21580403.510    21580387.630  
  21580393.269         -61.230         -47.710          45.020          50.160  
 -15412876.537   -12010018.437    22412401.932    22412424.690    22412402.430  
  22412404.456        2732.518        2129.229          43.580          48.100  
 15  7 19  0 29 30.0000000  0  7G02G05G10G12G20G25G29
 -18363898.548   -14837369.804    21645494.594           0.000    21645494.636  
  21645494.665       -1174.384        -915.107          45.310          50.200  
 -27532226.101   -21792657.403    20232234.786    20232259.590    20232235.522  
  20232237.067        -438.018        -341.314          46.000          56.500  
  -8994393.493    -9447698.760    23413108.853           0.000    23413107.783  
  23413111.572       -3507.116       -2732.821          37.160          41.640  
 -20383930.554   -15883569.999    21430005.886    21430027.070    21430005.994  
  21430008.506       -2331.339       -1816.626          45.870          51.070  
 -18602726.982   -15287905.863    21676258.169           0.000    21676257.498  
  21676261.021        2712.403        2113.559          45.080          48.000  
 -17241246.622   -15833450.102    21580792.631    21580824.990    21580793.243  
  21580798.924         -80.861         -63.006          44.910          50.230  
 -15494809.994   -12073862.649    22396811.000    22396855.100    22396810.823  
  22396812.880        2729.687        2127.024          43.380          48.230  
 15  7 19  0 30  0.0000000  0  6G02G05G12G20G25G29
 -18328628.953   -14809886.998    21652205.934           0.000    21652205.670  
  21652206.333       -1176.900        -917.066          45.110          50.210  
 -27518810.326   -21782203.537    20234787.620    20234818.470    20234788.432  
  20234789.938        -456.356        -355.603          46.000          56.470  
 -20313778.740   -15828906.287    21443355.027    21443387.360    21443355.354  
  21443357.718       -2345.448       -1827.619          45.590          50.820  
 -18683922.039   -15351174.668    21660806.689           0.000    21660806.566  
  21660810.076        2700.595        2104.361          45.180          48.000  
 -17238525.702   -15831329.908    21581311.212    21581334.620    21581310.836  
  21581316.837        -100.534         -78.334          44.940          50.320  
 -15576656.576   -12137639.147    22381235.246    22381239.660    22381235.357  
  22381237.961        2726.744        2124.735          42.940          48.390  
 15  7 19  0 30 30.0000000  0  6G02G05G12G20G25G29
 -18293284.651   -14782345.983    21658931.817           0.000    21658931.896  
  21658932.402       -1179.359        -918.982          45.280          50.250  
 -27504846.103   -21771322.312    20237445.247    20237469.430    20237445.762  
  20237447.114        -474.576        -369.797          45.880          56.380  
 -20243205.643   -15773914.312    21456785.105    21456815.810    21456785.061  
  21456786.973       -2359.405       -1838.497          45.760          50.690  
 -18764762.604   -15414167.256    21645423.421           0.000    21645423.098  
  21645426.405        2688.773        2095.145          45.470          47.860  
 -17235215.498   -15828750.534    21581941.619    21581967.040    21581941.009  
  21581946.603        -120.140         -93.611          45.240          50.340  
 -15658414.735   -12201346.748    22365675.875    22365701.660    22365677.033  
  22365680.179        2723.782        2122.426          42.760          48.350  
 15  7 19  0 31  0.0000000  0  6G02G05G12G20G25G29
 -18257866.175   -14754747.169    21665672.120           0.000    21665671.654  
  21665672.222       -1181.866        -920.933          45.240          50.330  
 -27490334.916   -21760014.880    20240206.473    20240235.780    20240206.988  
  20240208.520        -492.829        -384.024          45.990          56.370  
 -20172214.633   -15718596.689    21470293.305    21470316.710    21470293.942  
  21470296.416       -2373.327       -1849.343          45.710          50.630  
 -18845247.141   -15476882.423    21630107.723           0.000    21630107.442  
  21630110.424        2676.847        2085.853          45.740          47.860  
 -17231316.704   -15825712.521    21582683.839    21582709.790    21582683.543  
  21582688.500        -139.775        -108.916          45.430          50.220  
 -15740082.290   -12264983.748    22350134.731    22350164.470    22350135.949  
  22350139.503        2720.709        2120.031          43.080          48.640  
 15  7 19  0 31 30.0000000  0  6G02G05G12G20G25G29
 -18222373.414   -14727090.481    21672426.074           0.000    21672425.757  
  21672426.100       -1184.313        -922.841          45.390          50.180  
 -27475277.589   -21748281.885    20243071.598    20243109.890    20243072.309  
  20243073.986        -510.986        -398.173          45.880          56.390  
 -20100808.081   -15662955.266    21483882.252    21483891.240    21483882.522  
  21483884.199       -2387.106       -1860.080          45.800          50.370  
 -18925374.078   -15539318.941    21614860.221           0.000    21614859.939  
  21614862.844        2664.931        2076.566          45.810          47.820  
 -17226829.636   -15822216.109    21583537.286    21583565.640    21583537.370  
  21583542.258        -159.357        -124.174          45.590          50.290  
 -15821657.396   -12328548.713    22334612.370    22334637.760    22334613.351  
  22334616.266        2717.624        2117.625          43.390          48.410  
 15  7 19  0 32  0.0000000  0  6G02G05G12G20G25G29
 -18186806.537   -14699376.032    21679194.167           0.000    21679194.229  
  21679193.858       -1186.794        -924.776          45.700          49.970  
 -27459675.525   -21736124.419    20246040.718    20246064.910    20246041.342  
  20246042.832        -529.127        -412.306          45.870          56.270  
 -20028988.555   -15606992.039    21497549.007    21497582.770    21497549.454  
  21497551.562       -2400.836       -1870.780          46.010          50.570  
 -19005141.960   -15601475.681    21599681.028           0.000    21599680.396  
  21599683.201        2652.926        2067.218          45.520          47.790  
 -17221755.026   -15818261.867    21584502.337    21584538.310    21584502.923  
  21584508.145        -178.926        -139.422          45.500          50.490  
 -15903138.348   -12392040.317    22319108.119    22319143.230    22319108.430  
  22319110.779        2714.450        2115.154          43.810          48.600  
 15  7 19  0 32 30.0000000  0  6G02G05G12G20G25G29
 -18151165.526   -14671603.815    21685976.180           0.000    21685976.106  
  21685976.485       -1189.279        -926.711          45.440          49.960  
 -27443530.195   -21723543.632    20249112.236    20249138.860    20249113.137  
  20249115.093        -547.226        -426.410          45.840          56.320  
 -19956758.249   -15550708.726    21511294.934    21511315.410    21511294.897  
  21511296.447       -2414.497       -1881.424          46.460          50.500  
 -19084549.188   -15663351.393    21584570.130           0.000    21584570.004  
  21584572.570        2640.866        2057.820          45.810          47.930  
 -17216093.291   -15813850.140    21585580.408    21585611.580    21585580.372  
  21585585.574        -198.497        -154.672          45.610          50.570  
 -15984523.130   -12455456.979    22303621.937    22303648.080    22303621.507  
  22303623.673        2711.186        2112.615          43.750          48.510  
 15  7 19  0 33  0.0000000  0  6G02G05G12G20G25G29
 -18115450.608   -14643774.005    21692772.593           0.000    21692772.496  
  21692772.528       -1191.723        -928.613          45.640          49.780  
 -27426842.749   -21710540.414    20252288.827    20252319.520    20252289.297  
  20252290.633        -565.264        -440.466          46.000          56.320  
 -19884120.628   -15494108.023    21525117.008    21525153.300    21525117.214  
  21525119.143       -2428.001       -1891.947          46.470          50.750  
 -19163593.989   -15724944.699    21569527.506           0.000    21569527.543  
  21569530.863        2628.769        2048.389          45.650          48.040  
 -17209845.097   -15808981.419    21586769.374    21586806.420    21586769.522  
  21586774.470        -218.040        -169.899          45.790          50.700  
 -16065809.706   -12518797.121    22288153.329    22288176.600    22288153.200  
  22288155.198        2707.909        2110.056          43.880          48.640  
 15  7 19  0 33 30.0000000  0  6G02G05G12G20G25G29
 -18079662.185   -14615886.926    21699583.991           0.000    21699583.284  
  21699582.626       -1194.188        -930.537          45.870          49.600  
 -27409614.686   -21697115.930    20255566.738    20255590.720    20255567.633  
  20255569.246        -583.270        -454.496          46.040          56.460  
 -19811078.567   -15437192.170    21539016.764    21539038.060    21539017.091  
  21539018.420       -2441.464       -1902.438          46.800          50.640  
 -19242275.175   -15786254.665    21554555.170           0.000    21554555.162  
  21554558.318        2616.623        2038.931          45.790          48.190  
 -17203011.248   -15803656.338    21588069.941    21588099.550    21588069.751  
  21588074.985        -237.555        -185.108          45.660          50.660  
 -16146996.779   -12582059.717    22272702.501    22272716.080    22272703.038  
  22272705.633        2704.539        2107.430          43.380          48.580  
 15  7 19  0 34  0.0000000  0  6G02G05G12G20G25G29
 -18043799.703   -14587942.120    21706407.382           0.000    21706407.485  
  21706407.174       -1196.673        -932.473          45.610          49.710  
 -27391846.613   -21683270.666    20258948.244    20258980.090    20258948.394  
  20258950.560        -601.259        -468.514          45.930          56.510  
 -19737634.303   -15379962.910    21552992.784    21553023.000    21552992.964  
  21552994.737       -2454.823       -1912.849          47.020          50.840  
 -19320590.544   -15847279.579    21539652.039           0.000    21539651.993  
  21539655.367        2604.401        2029.400          45.530          48.260  
 -17195591.947   -15797875.061    21589481.525    21589517.680    21589481.491  
  21589486.876        -257.065        -200.311          45.680          50.610  
 -16228081.699   -12645242.712    22257272.832    22257281.970    22257272.904  
  22257275.432        2701.103        2104.755          43.260          48.310  
 15  7 19  0 34 30.0000000  0  6G02G05G12G20G25G29
 -18007863.481   -14559939.875    21713245.354           0.000    21713245.666  
  21713245.798       -1199.106        -934.367          45.560          49.690  
 -27373540.625   -21669006.250    20262431.703    20262464.140    20262432.370  
  20262433.989        -619.144        -482.452          46.250          56.470  
 -19663791.093   -15322422.779    21567044.334    21567066.590    21567044.794  
  21567046.542       -2468.078       -1923.175          47.190          50.910  
 -19398539.322   -15908018.845    21524819.585           0.000    21524818.990  
  21524822.270        2592.172        2019.871          45.540          48.440  
 -17187588.312   -15791638.459    21591004.037    21591028.940    21591004.420  
  21591010.051        -276.530        -215.477          45.750          50.580  
 -16309063.223   -12708345.151    22241862.603    22241873.580    22241862.669  
  22241865.168        2697.622        2102.043          43.350          47.980  
 15  7 19  0 35  0.0000000  0  6G02G05G12G20G25G29
 -17971853.574   -14531880.204    21720098.466           0.000    21720098.279  
  21720097.755       -1201.552        -936.275          45.530          49.270  
 -27354697.921   -21654323.616    20266017.447    20266042.300    20266018.296  
  20266019.380        -637.031        -496.387          46.430          56.330  
 -19589550.947   -15264573.344    21581171.875    21581192.500    21581172.417  
  21581174.067       -2481.244       -1933.437          47.030          50.960  
 -19476120.141   -15968471.379    21510056.761           0.000    21510055.795  
  21510059.236        2579.857        2010.276          45.420          48.720  
 -17179000.981   -15784947.030    21592638.640    21592670.320    21592639.238  
  21592644.047        -295.969        -230.626          45.970          50.530  
 -16389939.087   -12771365.261    22226472.861    22226481.350    22226472.484  
  22226474.673        2694.083        2099.277          43.270          47.530  
 15  7 19  0 35 30.0000000  0  6G02G05G12G20G25G29
 -17935769.928   -14503763.094    21726964.995           0.000    21726964.736  
  21726964.394       -1204.027        -938.202          45.270          49.350  
 -27335319.874   -21639223.839    20269705.735    20269731.940    20269706.147  
  20269706.996        -654.850        -510.269          46.430          56.330  
 -19514917.508   -15206417.445    21595373.619    21595399.080    21595374.242  
  21595376.326       -2494.335       -1943.634          46.700          50.960  
 -19553330.908   -16028635.556    21495363.701           0.000    21495362.778  
  21495366.759        2567.494        2000.642          45.400          48.970  
 -17169830.417   -15777801.138    21594383.682    21594419.870    21594384.079  
  21594389.107        -315.407        -245.774          46.040          50.440  
 -16470707.405   -12834301.572    22211102.182    22211139.330    22211102.732  
  22211105.232        2690.437        2096.444          43.500          47.680  
 15  7 19  0 36  0.0000000  0  6G02G05G12G20G25G29
 -17899612.676   -14475588.624    21733845.553           0.000    21733845.348  
  21733845.019       -1206.464        -940.104          45.180          49.320  
 -27315407.991   -21623708.076    20273494.408    20273520.380    20273494.704  
  20273496.103        -672.612        -524.113          46.060          56.270  
 -19439893.287   -15147957.046    21609650.777    21609683.250    21609650.803  
  21609653.246       -2507.310       -1953.749          46.160          51.030  
 -19630170.499   -16088510.501    21480741.293           0.000    21480740.906  
  21480744.576        2555.105        1990.990          45.570          49.140  
 -17160077.612   -15770201.543    21596240.311    21596266.740    21596239.853  
  21596244.629        -334.796        -260.879          45.740          50.300  
 -16551366.239   -12897152.580    22195753.322    22195784.590    22195753.810  
  22195756.208        2686.776        2093.594          43.460          47.720  
 15  7 19  0 36 30.0000000  0  6G02G05G12G20G25G29
 -17863382.111   -14447357.028    21740740.000           0.000    21740739.299  
  21740740.104       -1208.914        -942.007          45.160          49.590  
 -27294963.574   -21607777.349    20277384.610    20277418.530    20277384.978  
  20277386.597        -690.344        -537.929          46.110          56.300  
 -19364480.990   -15089194.250    21624001.071    21624040.870    21624001.329  
  21624003.819       -2520.178       -1963.771          46.110          51.090  
 -19706637.358   -16148095.000    21466190.342           0.000    21466189.978  
  21466193.268        2542.693        1981.317          45.990          49.310  
 -17149743.256   -15762148.797    21598206.011    21598239.040    21598206.151  
  21598211.351        -354.169        -275.975          45.710          50.350  
 -16631913.730   -12959916.826    22180426.399    22180449.670    22180426.053  
  22180428.657        2683.038        2090.681          43.590          48.000  
 15  7 19  0 37  0.0000000  0  6G02G05G12G20G25G29
 -17827077.882   -14419068.040    21747648.729           0.000    21747648.129  
  21747648.209       -1211.370        -943.926          45.230          49.310  
 -27273987.992   -21591432.733    20281375.736    20281397.820    20281376.267  
  20281378.026        -708.031        -551.715          46.010          56.250  
 -19288683.759   -15030131.501    21638423.785    21638460.130    21638424.622  
  21638427.766       -2532.968       -1973.743          45.890          51.010  
 -19782730.427   -16207388.235    21451710.207           0.000    21451710.086  
  21451713.104        2530.170        1971.559          46.060          49.310  
 -17138828.242   -15753643.592    21600283.111    21600307.850    21600283.172  
  21600288.288        -373.506        -291.045          45.510          50.330  
 -16712347.942   -13022592.797    22165120.441    22165140.350    22165120.106  
  22165122.662        2679.225        2087.703          43.470          48.280  
 15  7 19  0 37 30.0000000  0  6G02G05G12G20G25G29
 -17790700.307   -14390721.890    21754570.954           0.000    21754570.768  
  21754570.543       -1213.811        -945.829          45.400          49.290  
 -27252482.554   -21574675.238    20285468.009    20285493.900    20285468.755  
  20285470.258        -725.666        -565.454          46.030          56.100  
 -19212504.048   -14970770.716    21652920.818    21652950.890    21652921.483  
  21652923.672       -2545.667       -1983.642          45.670          50.480  
 -19858447.729   -16266388.655    21437301.500           0.000    21437301.125  
  21437304.326        2517.638        1961.790          45.830          49.340  
 -17127333.408   -15744686.586    21602470.511    21602500.620    21602470.866  
  21602475.618        -392.817        -306.090          45.580          50.400  
 -16792666.906   -13085178.969    22149835.371    22149880.210    22149835.926  
  22149838.109        2675.346        2084.689          43.550          48.190  
 15  7 19  0 38  0.0000000  0  6G02G05G12G20G25G29
 -17754249.148   -14362318.407    21761506.658           0.000    21761506.783  
  21761506.692       -1216.255        -947.727          45.150          49.310  
 -27230448.753   -21557506.031    20289660.565    20289679.730    20289661.622  
  20289663.090        -743.235        -579.143          46.000          56.060  
 -19135944.285   -14911113.786    21667490.731    21667514.590    21667490.516  
  21667492.520       -2558.275       -1993.459          45.590          50.450  
 -19933787.765   -16325095.099    21422965.088           0.000    21422964.404  
  21422967.464        2505.043        1951.979          46.030          49.280  
 -17115259.396   -15735278.276    21604768.366    21604806.790    21604768.775  
  21604773.830        -412.105        -321.121          45.750          50.560  
 -16872868.272   -13147673.515    22134573.667    22134607.960    22134573.954  
  22134576.120        2671.414        2081.617          43.920          48.320  
 15  7 19  0 38 30.0000000  0  6G02G05G12G20G25G29
 -17717724.698   -14333857.814    21768457.203           0.000    21768456.909  
  21768457.100       -1218.713        -949.646          45.180          49.290  
 -27207888.324   -21539926.462    20293954.349    20293979.210    20293954.658  
  20293956.409        -760.778        -592.816          46.000          56.120  
 -19059008.012   -14851163.473    21682131.126    21682148.460    21682130.930  
  21682132.841       -2570.800       -2003.218          45.570          50.180  
 -20008749.698   -16383506.916    21408700.417           0.000    21408699.873  
  21408702.603        2492.412        1942.133          46.340          49.270  
 -17102607.350   -15725419.555    21607175.997    21607199.220    21607176.474  
  21607181.131        -431.361        -336.128          45.830          50.470  
 -16952950.369   -13210075.128    22119334.537    22119346.050    22119335.044  
  22119337.034        2667.388        2078.484          44.390          48.640  
 15  7 19  0 39  0.0000000  0  6G02G05G12G20G25G29
 -17681126.724   -14305339.935    21775421.885           0.000    21775421.800  
  21775421.560       -1221.151        -951.547          45.540          49.280  
 -27184802.825   -21521937.753    20298347.735    20298370.420    20298347.788  
  20298349.495        -778.244        -606.426          45.980          56.160  
 -18981698.023   -14790921.947    21696842.473    21696873.650    21696842.800  
  21696844.398       -2583.194       -2012.877          45.740          50.140  
 -20083331.958   -16441622.886    21394507.398           0.000    21394506.885  
  21394509.800        2479.736        1932.257          46.310          49.210  
 -17089378.142   -15715111.090    21609693.585    21609725.800    21609693.648  
  21609698.244        -450.581        -351.102          45.710          50.190  
 -17032911.179   -13272382.231    22104118.965    22104137.380    22104119.341  
  22104121.272        2663.330        2075.317          44.670          48.950  
 15  7 19  0 39 30.0000000  0  6G02G05G12G20G25G29
 -17644455.075   -14276764.645    21782401.183           0.000    21782400.780  
  21782399.937       -1223.603        -953.458          45.940          49.180  
 -27161193.669   -21503540.994    20302839.736    20302869.810    20302840.612  
  20302842.056        -795.682        -620.012          46.080          56.080  
 -18904016.946   -14730391.266    21711624.563    21711655.370    21711624.908  
  21711627.007       -2595.508       -2022.475          45.600          50.170  
 -20157532.999   -16499441.806    21380387.627           0.000    21380387.215  
  21380390.057        2467.009        1922.338          46.680          49.420  
 -17075572.550   -15704353.493    21612320.498    21612339.120    21612320.503  
  21612325.295        -469.780        -366.061          45.590          50.250  
 -17112748.496   -13334593.104    22088926.526    22088939.750    22088926.848  
  22088928.321        2659.171        2072.081          44.650          48.960  
 15  7 19  0 40  0.0000000  0  6G02G05G12G20G25G29
 -17607710.274   -14248132.348    21789393.479           0.000    21789392.996  
  21789392.250       -1226.057        -955.366          45.630          49.150  
 -27137062.561   -21484737.522    20307431.768    20307460.560    20307432.278  
  20307434.112        -813.053        -633.550          46.040          56.030  
 -18825967.592   -14669573.618    21726477.199    21726516.000    21726477.287  
  21726479.283       -2607.760       -2032.019          45.740          49.910  
 -20231351.670   -16556962.767    21366340.278           0.000    21366339.822  
  21366342.760        2454.230        1912.387          46.630          49.390  
 -17061191.821   -15693147.742    21615057.606    21615093.520    21615057.457  
  21615062.460        -488.941        -380.992          45.720          50.520  
 -17192460.720   -13396706.498    22073757.539    22073790.000    22073757.885  
  22073759.399        2654.974        2068.808          44.340          48.930  
 15  7 19  0 40 30.0000000  0  7G02G05G12G13G20G25G29
 -17570891.827   -14219442.679    21796399.057           0.000    21796398.860  
  21796398.575       -1228.510        -957.278          45.360          49.350  
 -27112410.937   -21465528.454    20312123.400    20312152.000    20312124.070  
  20312125.090        -830.370        -647.044          46.300          55.960  
 -18747553.037   -14608471.392    21741399.340    21741425.150    21741399.284  
  21741400.908       -2619.859       -2041.449          46.020          49.820  
  -6609714.928    -5150416.507    23824773.204           0.000    23824773.758  
  23824778.406        2782.050        2167.836          38.580          41.580  
 -20304786.444   -16614184.592    21352366.059           0.000    21352365.586  
  21352368.576        2441.422        1902.407          46.660          49.360  
 -17046236.737   -15681494.435    21617903.606    21617933.130    21617903.830  
  21617908.453        -508.054        -395.887          45.980          50.690  
 -17272045.667   -13458720.719    22058612.836    22058652.170    22058613.365  
  22058615.114        2650.686        2065.471          44.570          49.230  
 15  7 19  0 41  0.0000000  0  7G02G05G12G13G20G25G29
 -17533999.843   -14190695.707    21803419.820           0.000    21803419.563  
  21803419.309       -1230.953        -959.182          45.690          49.630  
 -27087240.296   -21445914.956    20316913.233    20316940.870    20316913.772  
  20316914.595        -847.629        -660.488          46.170          55.840  
 -18668776.344   -14547086.977    21756390.394    21756411.090    21756390.516  
  21756391.817       -2631.885       -2050.820          46.480          49.910  
  -6693139.802    -5215422.770    23808898.899           0.000    23808899.283  
  23808902.251        2779.618        2165.928          38.790          40.390  
 -20377836.264   -16671106.457    21338464.976           0.000    21338464.706  
  21338467.153        2428.577        1892.392          46.670          49.180  
 -17030708.384   -15669394.434    21620857.770    21620892.800    21620858.191  
  21620863.375        -527.128        -410.751          45.580          50.690  
 -17351501.136   -13520634.043    22043492.439    22043512.220    22043493.608  
  22043495.426        2646.354        2062.093          44.500          49.290  
 15  7 19  0 41 30.0000000  0  7G02G05G12G13G20G25G29
 -17497034.217   -14161891.347    21810454.252           0.000    21810453.895  
  21810453.332       -1233.399        -961.091          45.580          49.220  
 -27061552.329   -21425898.345    20321801.937    20321828.620    20321802.144  
  20321802.883        -864.872        -673.925          46.250          55.700  
 -18589640.361   -14485422.593    21771449.136    21771479.350    21771449.403  
  21771450.772       -2643.822       -2060.119          46.410          49.540  
  -6776489.500    -5280370.482    23793037.604           0.000    23793037.382  
  23793041.092        2777.053        2163.926          38.390          40.400  
 -20450499.727   -16727727.265    21324637.627           0.000    21324637.128  
  21324639.495        2415.668        1882.334          46.530          48.990  
 -17014607.857   -15656848.578    21623920.974    21623961.640    21623921.579  
  21623927.311        -546.207        -425.619          45.430          50.550  
 -17430825.425   -13582445.153    22028397.874    22028426.880    22028398.442  
  22028400.520        2641.919        2058.637          44.280          49.240  
 15  7 19  0 42  0.0000000  0  7G02G05G12G13G20G25G29
 -17459995.222   -14133029.813    21817502.271           0.000    21817502.180  
  21817501.504       -1235.863        -963.011          45.350          49.220  
 -27035348.692   -21405479.921    20326787.757    20326809.550    20326788.235  
  20326789.535        -882.044        -687.308          46.190          55.830  
 -18510147.900   -14423480.434    21786575.726    21786603.080    21786576.110  
  21786577.701       -2655.667       -2069.350          46.360          49.720  
  -6859761.130    -5345257.350    23777190.644           0.000    23777190.938  
  23777195.565        2774.376        2161.847          38.170          40.990  
 -20522775.377   -16784045.884    21310883.971           0.000    21310883.404  
  21310886.106        2402.710        1872.240          46.340          49.270  
 -16997936.176   -15643857.668    21627094.312    21627127.520    21627094.262  
  21627099.773        -565.243        -440.447          45.350          50.590  
 -17510016.209   -13644152.217    22013327.666    22013350.570    22013328.498  
  22013331.138        2637.440        2055.146          43.800          49.460  
 15  7 19  0 42 30.0000000  0  7G02G05G12G13G20G25G29
 -17422882.869   -14104111.120    21824564.981           0.000    21824564.274  
  21824564.076       -1238.306        -964.912          45.290          49.450  
 -27008630.677   -21384660.675    20331871.983    20331895.040    20331872.395  
  20331873.790        -899.136        -700.626          45.990          55.840  
 -18430301.843   -14361262.744    21801769.505    21801802.640    21801770.353  
  21801772.427       -2667.395       -2078.490          46.230          49.870  
  -6942951.564    -5410080.943    23761359.618           0.000    23761360.353  
  23761364.608        2771.620        2159.702          37.400          40.700  
 -20594662.171   -16840061.492    21297203.692           0.000    21297203.648  
  21297206.478        2389.730        1862.127          46.260          49.400  
 -16980694.498   -15630422.601    21630374.378    21630411.750    21630374.948  
  21630380.980        -584.198        -455.219          45.120          50.690  
 -17589071.891   -13705753.994    21998283.387    21998317.100    21998284.101  
  21998287.050        2632.917        2051.618          43.070          49.300  
 15  7 19  0 43  0.0000000  0  7G02G05G12G13G20G25G29
 -17385696.593   -14075134.825    21831640.108           0.000    21831640.237  
  21831639.919       -1240.787        -966.850          45.050          49.170  
 -26981400.343   -21363442.223    20337053.172    20337077.220    20337053.788  
  20337055.716        -916.215        -713.935          45.880          55.900  
 -18350104.994   -14298771.715    21817030.778    21817051.300    21817031.290  
  21817033.397       -2679.043       -2087.567          46.210          50.070  
  -7026057.466    -5474838.670    23745546.231           0.000    23745545.596  
  23745550.017        2768.752        2157.459          36.720          41.140  
 -20666158.705   -16895773.004    21283598.323           0.000    21283598.086  
  21283601.109        2376.689        1851.962          46.020          49.420  
 -16962883.831   -15616544.165    21633764.477    21633786.060    21633764.363  
  21633770.044        -603.159        -469.994          45.060          50.660  
 -17667989.952   -13767248.533    21983265.353    21983274.630    21983266.349  
  21983269.159        2628.284        2048.011          43.050          48.990  
 15  7 19  0 43 30.0000000  0  7G02G05G12G13G20G25G29
 -17348436.555   -14046101.043    21838730.752           0.000    21838730.642  
  21838730.378       -1243.215        -968.739          45.050          49.160  
 -26953659.450   -21341825.929    20342332.131    20342364.520    20342332.657  
  20342334.459        -933.174        -727.149          45.890          55.850  
 -18269560.429   -14236009.734    21832358.541    21832389.310    21832358.616  
  21832361.002       -2690.582       -2096.555          46.080          50.310  
  -7109075.872    -5539528.203    23729748.821           0.000    23729748.670  
  23729752.449        2765.786        2155.157          37.120          42.030  
 -20737263.348   -16951179.154    21270067.968           0.000    21270067.539  
  21270069.946        2363.634        1841.791          45.980          49.340  
 -16944505.326   -15602223.255    21637261.469    21637290.680    21637261.938  
  21637267.371        -622.044        -484.713          45.190          50.600  
 -17746768.479   -13828634.344    21968274.257    21968293.110    21968275.373  
  21968277.997        2623.602        2044.368          43.610          49.030  
 15  7 19  0 44  0.0000000  0  7G02G05G12G13G20G25G29
 -17311102.845   -14017009.854    21845835.500           0.000    21845834.953  
  21845834.714       -1245.688        -970.667          45.130          49.180  
 -26925409.618   -21319813.059    20347708.078    20347735.490    20347708.517  
  20347709.825        -950.141        -740.370          46.080          55.730  
 -18188671.187   -14172979.190    21847750.438    21847789.990    21847750.772  
  21847753.431       -2702.028       -2105.478          45.510          50.290  
  -7192003.778    -5604147.212    23713967.512           0.000    23713967.963  
  23713971.349        2762.710        2152.756          37.210          42.320  
 -20807975.331   -17006279.337    21256611.307           0.000    21256611.075  
  21256613.966        2350.502        1831.557          45.710          49.500  
 -16925560.276   -15587460.877    21640867.357    21640905.560    21640866.978  
  21640872.346        -640.946        -499.439          45.280          50.460  
 -17825405.346   -13889909.773    21953311.196    21953339.270    21953311.393  
  21953313.808        2618.845        2040.655          44.040          48.860  
 15  7 19  0 44 30.0000000  0  7G02G05G12G13G20G25G29
 -17273695.061   -13987860.935    21852954.019           0.000    21852953.660  
  21852953.709       -1248.168        -972.598          45.170          49.590  
 -26896652.267   -21297404.724    20353180.259    20353209.600    20353180.839  
  20353182.164        -967.007        -753.513          46.030          55.610  
 -18107440.032   -14109682.216    21863208.378    21863238.650    21863208.562  
  21863211.446       -2713.368       -2114.309          45.350          50.440  
  -7274837.792    -5668693.067    23698204.310           0.000    23698205.221  
  23698208.320        2759.528        2150.278          37.720          42.390  
 -20878293.090   -17061072.325    21243230.730           0.000    21243230.187  
  21243233.035        2337.340        1821.303          45.560          49.730  
 -16906049.639   -15572257.780    21644579.897    21644614.710    21644580.023  
  21644584.759        -659.770        -514.105          45.500          50.170  
 -17903898.074   -13951072.891    21938374.586    21938393.720    21938375.057  
  21938376.944        2614.010        2036.886          44.440          49.000  
 15  7 19  0 45  0.0000000  0  7G02G05G12G13G20G25G29
 -17236213.597   -13958654.620    21860086.851           0.000    21860086.036  
  21860086.716       -1250.622        -974.509          45.140          49.770  
 -26867389.478   -21274602.544    20358748.593    20358781.980    20358749.297  
  20358750.885        -983.830        -766.620          46.120          55.700  
 -18025870.157   -14046121.309    21878730.127    21878760.220    21878730.773  
  21878733.326       -2724.611       -2123.067          45.130          50.360  
  -7357575.013    -5733163.512    23682459.744           0.000    23682460.268  
  23682464.527        2756.258        2147.734          37.980          42.780  
 -20948215.879   -17115557.538    21229924.524           0.000    21229924.359  
  21229927.236        2324.162        1811.031          45.920          49.840  
 -16885975.047   -15556615.240    21648400.257    21648432.810    21648400.141  
  21648404.976        -678.531        -528.728          45.540          50.130  
 -17982245.481   -14012122.764    21923466.553    21923478.860    21923466.539  
  21923467.899        2609.130        2033.084          44.890          48.990  
 15  7 19  0 45 30.0000000  0  7G02G05G12G13G20G25G29
 -17198658.122   -13929390.630    21867232.825           0.000    21867232.858  
  21867233.069       -1253.094        -976.437          45.490          49.590  
 -26837622.857   -21251407.759    20364412.550    20364439.390    20364413.896  
  20364415.387       -1000.611        -779.699          46.360          55.820  
 -17943964.317   -13982298.612    21894316.312    21894350.270    21894316.717  
  21894319.803       -2735.766       -2131.763          45.000          50.610  
  -7440212.343    -5797556.119    23666733.569           0.000    23666734.412  
  23666737.874        2752.862        2145.083          38.040          42.750  
 -21017742.168   -17169733.806    21216693.931           0.000    21216693.949  
  21216696.772        2310.910        1800.707          46.170          50.010  
 -16865337.520   -15540534.050    21652327.492    21652369.120    21652327.120  
  21652332.218        -697.290        -543.342          45.650          50.240  
 -18060444.901   -14073057.335    21908585.831    21908603.530    21908585.637  
  21908587.006        2604.146        2029.203          45.420          49.110  
 15  7 19  0 46  0.0000000  0  7G02G05G12G13G20G25G29
 -17161028.249   -13900068.661    21874394.027           0.000    21874393.569  
  21874393.429       -1255.556        -978.355          44.590          49.210  
 -26807353.928   -21227821.566    20370173.595    20370195.180    20370174.245  
  20370175.607       -1017.294        -792.697          45.950          55.680  
 -17861725.476   -13918216.435    21909966.518    21909994.000    21909966.693  
  21909969.170       -2746.796       -2140.363          44.680          50.320  
  -7522746.159    -5861868.073    23651028.927           0.000    23651028.840  
  23651032.309        2749.378        2142.366          38.020          42.550  
 -21086870.548   -17223600.007    21203539.880           0.000    21203539.461  
  21203541.975        2297.645        1790.372          45.860          49.860  
 -16844138.122   -15524015.046    21656361.222    21656392.670    21656361.391  
  21656366.249        -715.987        -557.912          44.740          49.980  
 -18138494.439   -14133875.116    21893733.099    21893768.080    21893733.461  
  21893734.752        2599.131        2025.297          45.100          48.910  
 15  7 19  0 46 30.0000000  0  7G02G05G12G13G20G25G29
 -17123324.254   -13870688.939    21881568.796           0.000    21881568.431  
  21881568.206       -1258.028        -980.284          44.740          49.390  
 -26776584.803   -21203845.615    20376028.710    20376060.920    20376029.344  
  20376030.522       -1033.967        -805.690          46.080          55.600  
 -17779156.657   -13853877.144    21925678.510    21925697.640    21925678.896  
  21925681.745       -2757.763       -2148.906          44.530          50.230  
  -7605173.780    -5926097.291    23635343.156           0.000    23635343.185  
  23635347.295        2745.766        2139.560          38.230          43.110  
 -21155600.205   -17277155.523    21190460.355           0.000    21190460.356  
  21190463.019        2284.321        1779.990          45.920          49.950  
 -16822378.419   -15507059.441    21660501.992    21660532.600    21660501.872  
  21660506.932        -734.648        -572.457          44.650          49.950  
 -18216391.729   -14194574.263    21878909.505    21878942.300    21878909.836  
  21878911.699        2594.008        2021.304          44.990          48.990  
 15  7 19  0 47  0.0000000  0  7G02G05G12G13G20G25G29
 -17085546.135   -13841251.452    21888757.444           0.000    21888757.471  
  21888757.170       -1260.509        -982.218          45.310          49.330  
 -26745317.257   -21179481.282    20381978.956    20381999.910    20381979.652  
  20381980.361       -1050.546        -818.608          46.590          55.570  
 -17696261.217   -13789283.326    21941454.277    21941486.740    21941454.284  
  21941456.049       -2768.598       -2157.350          45.690          50.130  
  -7687492.060    -5990241.274    23619678.232           0.000    23619678.543  
  23619681.948        2742.076        2136.677          38.490          43.440  
 -21223929.791   -17330399.291    21177458.699           0.000    21177457.819  
  21177460.381        2270.964        1769.582          46.730          50.230  
 -16800059.759   -15489668.283    21664748.592    21664783.710    21664748.742  
  21664753.943        -753.267        -586.958          45.010          49.920  
 -18294134.855   -14255153.273    21864114.673    21864146.950    21864115.539  
  21864117.687        2588.834        2017.269          45.200          49.190  
 15  7 19  0 47 30.0000000  0  7G02G05G12G13G20G25G29
 -17047693.712   -13811756.051    21895960.744           0.000    21895960.142  
  21895960.215       -1262.983        -984.140          45.240          49.370  
 -26713553.127   -21154729.998    20388022.563    20388060.160    20388023.696  
  20388024.878       -1067.055        -831.474          46.630          55.660  
 -17613041.982   -13724437.206    21957290.280    21957317.320    21957290.071  
  21957292.258       -2779.336       -2165.717          45.540          50.190  
  -7769698.027    -6054297.764    23604035.966           0.000    23604035.600  
  23604039.410        2738.290        2133.728          39.630          43.810  
 -21291858.427   -17383330.635    21164531.061           0.000    21164531.086  
  21164533.955        2257.593        1759.166          46.860          50.360  
 -16777183.510   -15471842.636    21669101.797    21669129.100    21669101.955  
  21669107.124        -771.806        -601.408          45.300          49.960  
 -18371721.866   -14315610.637    21849350.586    21849386.790    21849351.026  
  21849353.143        2583.617        2013.206          45.270          49.180  
 15  7 19  0 48  0.0000000  0  7G02G05G12G13G20G25G29
 -17009766.431   -13782202.325    21903177.664           0.000    21903177.780  
  21903177.747       -1265.497        -986.100          44.380          49.280  
 -26681293.619   -21129592.713    20394161.427    20394190.050    20394162.186  
  20394163.846       -1083.550        -844.322          45.830          55.460  
 -17529501.674   -13659340.903    21973187.450    21973213.560    21973187.368  
  21973189.249       -2789.993       -2174.023          44.880          49.670  
  -7851788.183    -6118264.018    23588413.062           0.000    23588413.531  
  23588417.580        2734.365        2130.671          38.370          43.590  
 -21359384.501   -17435948.293    21151681.158           0.000    21151681.173  
  21151683.852        2244.154        1748.687          46.020          50.120  
 -16753750.726   -15453583.330    21673561.132    21673585.160    21673561.529  
  21673566.349        -790.354        -615.858          44.690          49.650  
 -18449150.193   -14375944.359    21834617.241    21834651.740    21834616.964  
  21834619.230        2578.271        2009.040          44.670          49.470  
 15  7 19  0 48 30.0000000  0  7G02G05G12G13G20G25G29
 -16971764.521   -13752590.458    21910408.989           0.000    21910409.061  
  21910409.323       -1267.998        -988.049          45.010          49.530  
 -26648541.196   -21104071.338    20400394.316    20400421.910    20400394.980  
  20400396.370       -1099.956        -857.108          46.540          55.670  
 -17445643.563   -13593996.963    21989144.314    21989176.650    21989144.638  
  21989146.947       -2800.547       -2182.243          45.330          49.580  
  -7933759.677    -6182137.810    23572813.825           0.000    23572815.337  
  23572819.048        2730.357        2127.548          39.480          43.860  
 -21426507.368   -17488251.773    21138908.418           0.000    21138908.485  
  21138910.676        2230.684        1738.196          46.950          50.330  
 -16729763.126   -15434891.702    21678126.622    21678150.060    21678126.099  
  21678130.725        -808.826        -630.258          45.610          49.980  
 -18526418.059   -14436153.028    21819912.707    21819952.960    21819912.904  
  21819915.861        2572.888        2004.847          45.060          50.080  
 15  7 19  0 49  0.0000000  0  7G02G05G12G13G20G25G29
 -16933687.420   -13722920.004    21917654.165           0.000    21917654.414  
  21917655.242       -1270.471        -989.976          44.560          49.510  
 -26615297.153   -21078166.886    20406720.705    20406745.920    20406721.222  
  20406722.725       -1116.297        -869.843          46.590          55.620  
 -17361470.363   -13528407.513    22005161.847    22005187.920    22005162.084  
  22005164.611       -2810.987       -2190.379          45.070          49.460  
  -8015609.253    -6245916.596    23557239.639           0.000    23557239.667  
  23557243.513        2726.265        2124.357          39.450          43.800  
 -21493225.740   -17540240.060    21126212.101           0.000    21126212.075  
  21126214.649        2217.199        1727.684          46.740          50.480  
 -16705221.917   -15415768.689    21682795.599    21682825.440    21682795.755  
  21682800.890        -827.243        -644.605          45.170          49.760  
 -18603523.021   -14496234.757    21805239.186    21805278.800    21805240.005  
  21805243.246        2567.434        2000.597          44.560          50.210  
 15  7 19  0 49 30.0000000  0  7G02G05G12G13G20G25G29
 -16895535.591   -13693191.324    21924915.541           0.000    21924915.097  
  21924915.397       -1272.974        -991.925          44.930          49.450  
 -26581563.711   -21051881.086    20413140.681    20413170.530    20413140.904  
  20413141.681       -1132.582        -882.532          46.930          55.480  
 -17276985.243   -13462574.998    22021239.004    22021259.430    22021239.009  
  22021241.602       -2821.333       -2198.442          44.970          49.080  
  -8097333.599    -6309597.812    23541687.835           0.000    23541688.007  
  23541692.160        2722.011        2121.048          39.660          43.920  
 -21559538.253   -17591912.088    21113594.101           0.000    21113593.316  
  21113595.731        2203.641        1717.121          46.810          50.480  
 -16680128.595   -15396215.461    21687571.330    21687613.340    21687570.931  
  21687575.650        -845.627        -658.928          45.020          49.630  
 -18680463.169   -14556188.063    21790597.999    21790634.950    21790599.093  
  21790602.063        2561.909        1996.289          44.820          50.410  
 15  7 19  0 50  0.0000000  0  7G02G05G12G13G20G25G29
 -16857309.088   -13663404.441    21932189.328           0.000    21932189.460  
  21932189.414       -1275.474        -993.880          44.420          49.160  
 -26547342.990   -21025215.588    20419652.651    20419677.620    20419652.917  
  20419653.587       -1148.789        -895.159          46.340          55.260  
 -17192191.527   -13396502.021    22037375.166    22037407.270    22037375.013  
  22037377.271       -2831.571       -2206.420          44.620          48.800  
  -8178929.813    -6373179.179    23526160.502           0.000    23526160.458  
  23526164.440        2717.692        2117.681          38.630          43.220  
 -21625444.186   -17643267.301    21101052.191           0.000    21101051.628  
  21101054.470        2190.082        1706.556          45.920          50.390  
 -16654484.812   -15376233.306    21692451.365    21692481.300    21692450.949  
  21692455.679        -863.949        -673.205          44.350          49.610  
 -18757236.486   -14616011.379    21775990.356    21776011.900    21775990.157  
  21775992.106        2556.298        1991.923          44.700          49.960  
 15  7 19  0 50 30.0000000  0  7G02G05G12G13G20G25G29
 -16819007.217   -13633558.837    21939478.669           0.000    21939478.558  
  21939478.540       -1278.006        -995.848          44.280          49.400  
 -26512636.934   -20998171.903    20426256.344    20426283.800    20426256.995  
  20426258.145       -1164.965        -907.765          46.100          55.240  
 -17107092.060   -13330190.795    22053568.533    22053605.270    22053568.867  
  22053571.420       -2841.726       -2214.330          44.440          49.020  
  -8260394.763    -6436658.255    23510658.033           0.000    23510658.319  
  23510661.779        2713.256        2114.221          38.550          42.490  
 -21690942.226   -17694304.681    21088588.328           0.000    21088588.126  
  21088590.465        2176.443        1695.929          45.880          50.330  
 -16628292.028   -15355823.353    21697435.409    21697469.670    21697435.130  
  21697440.442        -882.227        -687.452          44.390          49.740  
 -18833840.607   -14675702.872    21761413.165    21761438.720    21761413.247  
  21761414.467        2550.611        1987.484          44.850          49.770  
 15  7 19  0 51  0.0000000  0  7G02G05G12G13G20G25G29
 -16780629.882   -13603654.432    21946781.537           0.000    21946781.111  
  21946781.146       -1280.504        -997.794          45.000          49.310  
 -26477447.139   -20970751.274    20432952.739    20432979.050    20432953.228  
  20432954.737       -1181.032        -920.284          46.660          55.500  
 -17021689.696   -13263643.554    22069820.520    22069850.650    22069820.946  
  22069822.885       -2851.766       -2222.154          45.080          48.950  
  -8341724.922    -6500032.332    23495181.098           0.000    23495181.344  
  23495185.460        2708.716        2110.680          38.890          41.900  
 -21756031.375   -17745023.443    21076202.539           0.000    21076202.059  
  21076204.142        2162.813        1685.309          46.700          50.510  
 -16601551.540   -15334986.627    21702523.805    21702558.780    21702524.034  
  21702528.702        -900.456        -701.655          45.360          49.920  
 -18910273.126   -14735260.652    21746868.391    21746895.350    21746868.361  
  21746869.958        2544.871        1983.015          45.580          50.020  
 15  7 19  0 51 30.0000000  0  7G02G05G12G13G20G25G29
 -16742176.853   -13573691.040    21954097.404           0.000    21954097.821  
  21954098.266       -1283.028        -999.763          44.550          49.090  
 -26441775.380   -20942955.085    20439741.455    20439764.880    20439741.534  
  20439742.769       -1197.077        -932.790          46.650          55.460  
 -16935987.567   -13196862.724    22086128.440    22086168.140    22086129.379  
  22086131.356       -2861.704       -2229.899          44.820          48.830  
  -8422917.239    -6563298.988    23479729.881           0.000    23479731.189  
  23479734.689        2704.074        2107.068          38.850          42.260  
 -21820710.752   -17795422.900    21063893.483           0.000    21063893.354  
  21063896.079        2149.122        1674.638          46.140          50.650  
 -16574264.977   -15313724.386    21707716.816    21707737.470    21707716.452  
  21707721.427        -918.642        -715.823          45.330          50.080  
 -18986532.126   -14794683.212    21732355.657    21732382.340    21732356.439  
  21732358.236        2539.047        1978.480          45.170          49.880  
 15  7 19  0 52  0.0000000  0  7G02G05G12G13G20G25G29
 -16703648.068   -13543668.616    21961430.276           0.000    21961429.708  
  21961429.861       -1285.550       -1001.724          44.010          48.730  
 -26405623.570   -20914784.837    20446620.663    20446652.850    20446620.851  
  20446622.065       -1213.025        -945.216          45.850          55.130  
 -16849988.802   -13129850.758    22102494.036    22102510.120    22102494.169  
  22102496.805       -2871.518       -2237.542          43.990          49.110  
  -8503968.828    -6626455.962    23464306.149           0.000    23464306.889  
  23464311.281        2699.351        2103.390          37.820          42.240  
 -21884979.117   -17845502.086    21051663.682           0.000    21051663.552  
  21051666.335        2135.440        1663.976          45.530          50.630  
 -16546433.923   -15292037.864    21713012.300    21713040.650    21713012.400  
  21713017.418        -936.740        -729.926          44.660          49.820  
 -19062615.370   -14853968.831    21717878.164    21717900.590    21717878.134  
  21717879.891        2533.168        1973.894          44.620          49.550  
 15  7 19  0 52 30.0000000  0  7G02G05G12G13G20G25G29
 -16665043.610   -13513587.227    21968776.743           0.000    21968776.681  
  21968776.227       -1288.085       -1003.701          44.320          48.560  
 -26368993.875   -20886242.216    20453591.008    20453614.350    20453591.412  
  20453592.435       -1228.932        -957.609          45.600          54.970  
 -16763696.616   -13062610.142    22118914.895    22118937.800    22118915.245  
  22118917.440       -2881.274       -2245.144          43.900          48.730  
  -8584876.394    -6689500.731    23448910.806           0.000    23448911.301  
  23448914.768        2694.475        2099.587          38.150          42.190  
 -21948835.751   -17895260.447    21039512.418           0.000    21039512.281  
  21039514.799        2121.674        1653.252          45.450          50.680  
 -16518059.969   -15269928.307    21718411.737    21718442.950    21718411.645  
  21718417.158        -954.844        -744.031          44.380          49.950  
 -19138520.778   -14913115.870    21703432.929    21703454.980    21703433.563  
  21703435.729        2527.172        1969.222          44.570          49.740  
 15  7 19  0 53  0.0000000  0  7G02G05G12G13G20G25G29
 -16626363.015   -13483446.502    21976136.998           0.000    21976137.051  
  21976137.367       -1290.613       -1005.670          44.600          49.060  
 -26331888.241   -20857328.727    20460651.246    20460678.040    20460651.891  
  20460653.291       -1244.751        -969.934          46.040          55.020  
 -16677113.908   -12995143.145    22135391.241    22135417.190    22135391.108  
  22135393.786       -2890.889       -2252.640          44.270          49.060  
  -8665636.673    -6752430.713    23433542.443           0.000    23433542.898  
  23433546.925        2689.533        2095.741          38.440          43.200  
 -22012279.482   -17944697.072    21027439.129           0.000    21027439.092  
  21027441.729        2107.905        1642.525          46.190          50.920  
 -16489144.736   -15247396.972    21723914.147    21723944.700    21723914.578  
  21723919.820        -972.832        -758.048          45.210          50.140  
 -19214246.061   -14972122.554    21689022.799    21689040.420    21689023.422  
  21689025.836        2521.177        1964.552          45.360          50.300  
 15  7 19  0 53 30.0000000  0  7G02G05G12G13G20G25G29
 -16587605.954   -13453246.209    21983511.938           0.000    21983511.895  
  21983512.758       -1293.171       -1007.671          44.610          49.000  
 -26294308.525   -20828045.822    20467802.704    20467822.580    20467802.984  
  20467804.293       -1260.529        -982.229          46.080          54.910  
 -16590243.538   -12927451.998    22151921.390    22151951.210    22151922.068  
  22151924.989       -2900.444       -2260.082          43.990          49.370  
  -8746246.741    -6815243.641    23418201.604           0.000    23418202.815  
  23418207.057        2684.461        2091.779          38.860          43.310  
 -22075309.318   -17993811.180    21015444.992           0.000    21015444.911  
  21015447.346        2094.088        1631.754          46.340          50.860  
 -16459689.821   -15224445.106    21729520.045    21729550.240    21729519.887  
  21729524.737        -990.802        -772.051          45.300          50.130  
 -19289789.096   -15030987.223    21674647.828    21674674.610    21674648.317  
  21674650.654        2515.032        1959.763          45.700          50.620  
 15  7 19  0 54  0.0000000  0  7G02G05G12G13G20G25G29
 -16548772.496   -13422986.376    21990901.911           0.000    21990901.811  
  21990902.146       -1295.723       -1009.652          44.370          48.590  
 -26256257.096   -20798395.342    20475043.420    20475071.440    20475044.043  
  20475045.429       -1276.225        -994.463          45.980          54.930  
 -16503088.740   -12859539.225    22168507.297    22168535.390    22168507.104  
  22168510.015       -2909.857       -2267.420          43.750          49.250  
  -8826703.317    -6877936.976    23402893.076           0.000    23402893.396  
  23402896.129        2679.300        2087.759          39.280          43.090  
 -22137924.362   -18042602.071    21003530.262           0.000    21003529.728  
  21003532.085        2080.246        1620.970          46.210          50.660  
 -16429696.972   -15201074.065    21735226.684    21735263.710    21735227.014  
  21735232.075       -1008.707        -786.003          44.850          50.150  
 -19365147.457   -15089707.993    21660307.962    21660330.220    21660308.430  
  21660310.478        2508.840        1954.937          46.040          50.550  
 15  7 19  0 54 30.0000000  0  7G02G05G12G13G20G25G29
 -16509862.718   -13392667.083    21998306.444           0.000    21998305.981  
  21998306.153       -1298.271       -1011.639          44.200          48.320  
 -26217735.644   -20768378.613    20482374.272    20482395.570    20482374.519  
  20482375.855       -1291.846       -1006.635          45.910          54.880  
 -16415652.827   -12791407.411    22185145.153    22185182.180    22185145.603  
  22185148.837       -2919.174       -2274.676          43.100          49.530  
  -8907003.128    -6940508.150    23387612.406           0.000    23387612.208  
  23387616.106        2674.009        2083.640          39.050          43.250  
 -22200123.552   -18091068.921    20991693.808           0.000    20991693.393  
  20991695.875        2066.363        1610.151          45.880          50.630  
 -16399167.836   -15177285.141    21741036.506    21741073.360    21741036.122  
  21741041.714       -1026.558        -799.911          44.340          50.110  
 -19440319.075   -15148283.258    21646003.490    21646032.620    21646003.965  
  21646005.621        2502.595        1950.076          46.290          50.440  
 15  7 19  0 55  0.0000000  0  7G02G05G12G13G20G25G29
 -16470875.824   -13362287.694    22005725.323           0.000    22005724.922  
  22005724.986       -1300.835       -1013.638          44.170          48.200  
 -26178746.300   -20737997.297    20489792.941    20489827.940    20489793.791  
  20489794.885       -1307.416       -1018.763          45.910          54.790  
 -16327938.613   -12723058.737    22201836.871    22201868.010    22201837.465  
  22201839.832       -2928.409       -2281.870          43.740          49.200  
  -8987143.121    -7002954.788    23372362.043           0.000    23372362.452  
  23372365.553        2668.655        2079.468          39.210          43.080  
 -22261905.920   -18139210.976    20979937.131           0.000    20979936.726  
  20979939.116        2052.481        1599.334          46.080          50.730  
 -16368104.069   -15153079.623    21746946.898    21746971.840    21746947.116  
  21746953.028       -1044.332        -813.764          44.190          50.080  
 -19515301.861   -15206711.382    21631734.765    21631765.110    21631735.045  
  21631736.583        2496.261        1945.139          46.300          50.260  
 15  7 19  0 55 30.0000000  0  7G02G05G12G13G20G25G29
 -16431811.599   -13331848.044    22013157.892           0.000    22013158.462  
  22013158.726       -1303.438       -1015.666          43.940          48.180  
 -26139290.517   -20707252.527    20497300.928    20497326.060    20497301.690  
  20497303.284       -1322.947       -1030.868          45.610          54.750  
 -16239949.071   -12654495.500    22218581.049    22218600.570    22218581.776  
  22218584.114       -2937.554       -2288.998          44.170          49.280  
  -9067119.921    -7065274.281    23357142.178           0.000    23357143.036  
  23357146.490        2663.128        2075.167          39.200          43.310  
 -22323270.646   -18187027.603    20968259.725           0.000    20968259.298  
  20968261.918        2038.500        1588.442          45.920          50.930  
 -16336507.227   -15128458.721    21752959.558    21752984.330    21752959.915  
  21752965.475       -1062.101        -827.615          44.230          49.930  
 -19590093.353   -15264990.439    21617501.897    21617521.700    21617502.445  
  21617504.067        2489.824        1940.120          45.810          50.110  
 15  7 19  0 56  0.0000000  0  7G02G05G12G13G20G25G29
 -16392670.338   -13301348.365    22020607.440           0.000    22020607.346  
  22020607.244       -1306.009       -1017.668          44.310          48.110  
 -26099370.875   -20676146.309    20504897.849    20504922.990    20504898.412  
  20504899.774       -1338.372       -1042.887          45.690          54.790  
 -16151687.232   -12585720.092    22235376.893    22235407.200    22235377.057  
  22235379.595       -2946.567       -2296.022          44.020          49.040  
  -9146930.634    -7127464.353    23341955.960           0.000    23341956.389  
  23341959.324        2657.545        2070.807          39.640          43.720  
 -22384216.825   -18234518.081    20956662.512           0.000    20956661.670  
  20956664.435        2024.545        1577.565          45.980          51.170  
 -16304379.294   -15103423.979    21759073.589    21759125.380    21759073.672  
  21759078.816       -1079.768        -841.379          44.340          49.670  
 -19664691.460   -15323118.804    21603306.399    21603345.980    21603306.593  
  21603308.454        2483.347        1935.074          45.760          50.230  
 15  7 19  0 56 30.0000000  0  7G02G05G12G13G20G25G29
 -16353451.496   -13270788.230    22028070.780           0.000    22028070.586  
  22028070.325       -1308.597       -1019.686          44.000          48.430  
 -26058989.511   -20644680.305    20512582.339    20512607.820    20512582.709  
  20512584.082       -1353.717       -1054.845          45.760          54.740  
 -16063156.542   -12516735.179    22252222.672    22252250.710    22252223.864  
  22252226.492       -2955.478       -2302.964          44.140          48.990  
  -9226571.936    -7189522.408    23326799.581           0.000    23326800.087  
  23326803.079        2651.832        2066.365          39.140          43.660  
 -22444743.772   -18281681.887    20945144.228           0.000    20945143.709  
  20945146.435        2010.553        1566.662          46.060          51.270  
 -16271722.042   -15077976.782    21765288.029    21765323.870    21765288.075  
  21765293.565       -1097.379        -855.101          44.220          49.710  
 -19739094.002   -15381094.770    21589147.581    21589170.530    21589148.260  
  21589150.110        2476.798        1929.970          45.760          50.360  
 15  7 19  0 57  0.0000000  0  7G02G05G12G13G20G25G29
 -16314154.489   -13240167.220    22035548.960           0.000    22035548.381  
  22035548.681       -1311.210       -1021.721          44.130          48.830  
 -26018148.268   -20612855.957    20520353.818    20520386.350    20520354.601  
  20520356.084       -1369.030       -1066.775          45.850          54.820  
 -15974360.266   -12447543.325    22269120.732    22269134.380    22269121.145  
  22269123.849       -2964.274       -2309.826          44.040          48.910  
  -9306040.613    -7251445.949    23311677.007           0.000    23311677.079  
  23311680.855        2646.028        2061.839          39.200          44.250  
 -22504850.699   -18328518.404    20933705.801           0.000    20933705.570  
  20933708.266        1996.541        1555.744          46.100          51.190  
 -16238537.210   -15052118.479    21771602.823    21771629.750    21771602.977  
  21771608.617       -1114.953        -868.798          44.170          49.670  
 -19813298.503   -15438916.416    21575027.831    21575040.740    21575027.636  
  21575029.456        2470.144        1924.784          45.620          50.330  
 15  7 19  0 57 30.0000000  0  7G02G05G12G13G20G25G29
 -16274779.725   -13209485.602    22043040.564           0.000    22043040.786  
  22043041.273       -1313.800       -1023.740          43.840          48.920  
 -25976849.460   -20580675.062    20528213.560    20528243.420    20528213.582  
  20528215.142       -1384.236       -1078.625          45.840          54.820  
 -15885301.328   -12378146.799    22286069.030    22286100.070    22286068.802  
  22286071.335       -2972.981       -2316.606          44.160          48.780  
  -9385333.507    -7313232.506    23296588.323           0.000    23296588.358  
  23296591.929        2640.118        2057.232          38.760          44.510  
 -22564536.450   -18375026.736    20922347.991           0.000    20922347.842  
  20922350.362        1982.477        1544.786          46.100          51.200  
 -16204826.524   -15025850.421    21778019.140    21778052.320    21778018.615  
  21778023.391       -1132.440        -882.418          44.320          49.670  
 -19887302.808   -15496582.060    21560944.103    21560978.790    21560945.033  
  21560946.831        2463.439        1919.562          45.300          50.250  
 15  7 19  0 58  0.0000000  0  7G02G05G12G13G20G25G29
 -16235326.894   -13178743.160    22050549.031           0.000    22050548.830  
  22050548.885       -1316.397       -1025.766          43.770          48.700  
 -25935094.969   -20548139.090    20536158.486    20536188.680    20536159.274  
  20536160.698       -1399.381       -1090.426          45.910          54.740  
 -15795982.649   -12308547.873    22303065.517    22303101.610    22303065.825  
  22303068.234       -2981.573       -2323.303          44.170          48.820  
  -9464447.495    -7374879.661    23281534.023           0.000    23281533.076  
  23281537.138        2634.122        2052.562          39.100          44.590  
 -22623799.913   -18421206.011    20911070.242           0.000    20911070.135  
  20911072.723        1968.417        1533.829          45.930          51.170  
 -16170591.841   -14999174.058    21784531.988    21784568.860    21784532.528  
  21784537.947       -1149.860        -895.995          44.080          49.550  
 -19961104.766   -15554090.028    21546900.657    21546927.960    21546901.068  
  21546902.862        2456.668        1914.285          45.550          50.360  
 15  7 19  0 58 30.0000000  0  7G02G05G12G13G20G25G29
 -16195795.513   -13147939.492    22058071.911           0.000    22058071.229  
  22058071.270       -1319.025       -1027.809          43.710          48.560  
 -25892886.737   -20515249.552    20544190.458    20544216.210    20544191.291  
  20544192.527       -1414.489       -1102.197          45.870          54.630  
 -15706407.089   -12238748.800    22320110.746    22320134.440    22320111.169  
  22320113.804       -2990.095       -2329.942          43.860          48.490  
  -9543379.591    -7436385.090    23266511.616           0.000    23266512.073  
  23266515.815        2628.002        2047.793          38.500          44.170  
 -22682640.708   -18467055.935    20899873.472           0.000    20899872.901  
  20899875.663        1954.296        1522.827          45.930          51.240  
 -16135835.188   -14972090.965    21791146.049    21791177.820    21791146.347  
  21791152.052       -1167.233        -909.535          43.950          49.570  
 -20034701.930   -15611438.411    21532895.682    21532928.200    21532896.115  
  21532898.156        2449.802        1908.934          45.550          50.630  
 15  7 19  0 59  0.0000000  0  7G02G05G12G13G20G25G29
 -16156185.409   -13117074.495    22065609.252           0.000    22065608.694  
  22065609.133       -1321.642       -1029.855          43.690          48.820  
 -25850226.885   -20482008.105    20552308.148    20552335.490    20552309.044  
  20552310.394       -1429.492       -1113.890          45.830          54.590  
 -15616578.037   -12168752.172    22337204.704    22337243.910    22337205.321  
  22337207.474       -2998.493       -2336.490          43.680          47.950  
  -9622126.208    -7497745.996    23251526.742           0.000    23251527.924  
  23251530.996        2621.761        2042.919          39.510          44.410  
 -22741057.633   -18512575.572    20888757.524           0.000    20888757.046  
  20888759.339        1940.169        1511.817          46.220          51.290  
 -16100558.182   -14944602.407    21797860.607    21797895.300    21797859.843  
  21797864.950       -1184.542        -923.017          44.110          49.490  
 -20108091.788   -15668625.258    21518930.590    21518952.550    21518930.514  
  21518932.585        2442.851        1903.519          45.570          50.850  
 15  7 19  0 59 30.0000000  0  7G02G05G12G13G20G25G29
 -16116496.471   -13086148.073    22073162.022           0.000    22073161.703  
  22073161.770       -1324.277       -1031.905          44.150          49.150  
 -25807118.073   -20448416.822    20560511.728    20560535.020    20560512.672  
  20560513.791       -1444.432       -1125.531          46.290          54.610  
 -15526498.596   -12098560.456    22354345.962    22354377.690    22354346.252  
  22354349.284       -3006.780       -2342.945          42.990          48.100  
  -9700684.744    -7558960.329    23236577.643           0.000    23236578.250  
  23236582.418        2615.450        2038.009          39.120          44.930  
 -22799050.469   -18557764.750    20877721.298           0.000    20877721.232  
  20877723.454        1926.011        1500.784          46.330          51.320  
 -16064763.051   -14916710.117    21804670.987    21804701.660    21804671.260  
  21804676.635       -1201.785        -936.458          44.230          49.480  
 -20181272.838   -15725649.383    21505003.832    21505020.440    21505004.101  
  21505006.563        2435.852        1898.065          45.090          50.890  
